[{"iata":"BBQ","icao":"AG-0001","name":"Burton-Nibbs International Airport","country":"AG","lat":17.621194,"lon":-61.798347,"runwayLengthFt":6100,"fireCat":7,"customs":false,"fuel":"jet-a1","etopsAlternate":false},{"iata":"HIR","icao":"AGGH","name":"Honiara International Airport","country":"SB","lat":-9.428,"lon":160.054993,"runwayLengthFt":7218,"fireCat":9,"customs":true,"fuel":"jet-a1","etopsAlternate":false},{"iata":"INU","icao":"ANYN","name":"Nauru International Airport","country":"NR","lat":-0.547893,"lon":166.919525,"runwayLengthFt":7054,"fireCat":7,"customs":false,"fuel":"jet-a1","etopsAlternate":false},{"iata":"","icao":"AR-0744","name":"Chamical Airport","country":"AR","lat":-30.345303,"lon":-66.294072,"runwayLengthFt":6726,"fireCat":7,"customs":false,"fuel":"none","etopsAlternate":false},{"iata":"AXF","icao":"AXF","name":"Alxa Left Banner Bayanhot Airport","country":"CN","lat":38.748317,"lon":105.58416,"runwayLengthFt":7874,"fireCat":7,"customs":false,"fuel":"jet-a1","etopsAlternate":false},{"iata":"HKN","icao":"AYHK","name":"Hoskins Airport","country":"PG","lat":-5.463846,"lon":150.407327,"runwayLengthFt":6644,"fireCat":7,"customs":false,"fuel":"jet-a1","etopsAlternate":false},{"iata":"HGU","icao":"AYMH","name":"Mount Hagen Kagamuga Airport","country":"PG","lat":-5.828212,"lon":144.299412,"runwayLengthFt":7185,"fireCat":7,"customs":false,"fuel":"jet-a1","etopsAlternate":false},{"iata":"MAS","icao":"AYMO","name":"Momote Airport","country":"PG","lat":-2.06189,"lon":147.423996,"runwayLengthFt":6136,"fireCat":7,"customs":false,"fuel":"jet-a1","etopsAlternate":false},{"iata":"LAE","icao":"AYNZ","name":"Nadzab Tomodachi International Airport","country":"PG","lat":-6.567995,"lon":146.726544,"runwayLengthFt":8000,"fireCat":9,"customs":true,"fuel":"jet-a1","etopsAlternate":true},{"iata":"POM","icao":"AYPY","name":"Port Moresby Jacksons International Airport","country":"PG","lat":-9.443380355834961,"lon":147.22000122070312,"runwayLengthFt":9022,"fireCat":9,"customs":true,"fuel":"jet-a1","etopsAlternate":true},{"iata":"JAM","icao":"BG-JAM","name":"Bezmer Air Base","country":"BG","lat":42.454899,"lon":26.3522,"runwayLengthFt":8193,"fireCat":7,"customs":false,"fuel":"none","etopsAlternate":false},{"iata":"GOH","icao":"BGGH","name":"Nuuk International Airport","country":"GL","lat":64.191066,"lon":-51.67914,"runwayLengthFt":7217,"fireCat":9,"customs":true,"fuel":"jet-a1","etopsAlternate":false},{"iata":"SFJ","icao":"BGSF","name":"Kangerlussuaq International Airport","country":"GL","lat":67.010446,"lon":-50.715294,"runwayLengthFt":9219,"fireCat":7,"customs":false,"fuel":"jet-a1","etopsAlternate":false},{"iata":"THU","icao":"BGTL","name":"Pituffik Space Base","country":"GL","lat":76.53063,"lon":-68.700541,"runwayLengthFt":9997,"fireCat":7,"customs":false,"fuel":"jet-a1","etopsAlternate":false},{"iata":"AEY","icao":"BIAR","name":"Akureyri International Airport","country":"IS","lat":65.656573,"lon":-18.072018,"runwayLengthFt":8858,"fireCat":9,"customs":true,"fuel":"jet-a1","etopsAlternate":true},{"iata":"EGS","icao":"BIEG","name":"Egilsstaðir Airport","country":"IS","lat":65.2833023071289,"lon":-14.401399612426758,"runwayLengthFt":7054,"fireCat":7,"customs":false,"fuel":"jet-a1","etopsAlternate":false},{"iata":"KEF","icao":"BIKF","name":"Keflavik International Airport","country":"IS","lat":63.985001,"lon":-22.6056,"runwayLengthFt":10056,"fireCat":9,"customs":true,"fuel":"jet-a1","etopsAlternate":true},{"iata":"PRN","icao":"BKPR","name":"Priština Adem Jashari International Airport","country":"XK","lat":42.5728,"lon":21.035801,"runwayLengthFt":9974,"fireCat":9,"customs":true,"fuel":"jet-a1","etopsAlternate":true},{"iata":"VDC","icao":"BR-0569","name":"Glauber de Andrade Rocha Airport","country":"BR","lat":-14.907885,"lon":-40.914804,"runwayLengthFt":6890,"fireCat":7,"customs":false,"fuel":"jet-a1","etopsAlternate":false},{"iata":"TXC","icao":"BY-0001","name":"Orsha Airport - Balbasovo Air Base","country":"BY","lat":54.439999,"lon":30.2967,"runwayLengthFt":9845,"fireCat":7,"customs":false,"fuel":"none","etopsAlternate":false},{"iata":"BZX","icao":"CN-0062","name":"Bazhong Enyang Airport","country":"CN","lat":31.73842,"lon":106.644872,"runwayLengthFt":8530,"fireCat":7,"customs":false,"fuel":"jet-a1","etopsAlternate":false},{"iata":"JGS","icao":"CN-0081","name":"Jinggangshan Airport","country":"CN","lat":26.856899,"lon":114.737,"runwayLengthFt":8530,"fireCat":7,"customs":false,"fuel":"jet-a1","etopsAlternate":false},{"iata":"","icao":"CN-0149","name":"Fuzhou Air Base","country":"CN","lat":26.003857,"lon":119.312832,"runwayLengthFt":7874,"fireCat":7,"customs":false,"fuel":"none","etopsAlternate":false},{"iata":"","icao":"CN-0188","name":"Beijing Nanjiao Airport","country":"CN","lat":39.482845,"lon":116.372295,"runwayLengthFt":12467,"fireCat":7,"customs":false,"fuel":"none","etopsAlternate":false},{"iata":"DDR","icao":"CN-0236","name":"Shigatse Tingri Airport","country":"CN","lat":28.604567,"lon":86.798,"runwayLengthFt":14764,"fireCat":7,"customs":false,"fuel":"jet-a1","etopsAlternate":false},{"iata":"","icao":"CN-0418","name":"Hohhot Shengle International Airport (under construction)","country":"CN","lat":40.480965,"lon":111.575174,"runwayLengthFt":12467,"fireCat":7,"customs":false,"fuel":"none","etopsAlternate":false},{"iata":"BFY","icao":"CN-0476","name":"Bengbu Tenghu Airport","country":"CN","lat":33.166292,"lon":117.058344,"runwayLengthFt":8530,"fireCat":7,"customs":false,"fuel":"jet-a1","etopsAlternate":false},{"iata":"YAM","icao":"CYAM","name":"Sault Ste Marie Airport","country":"CA","lat":46.483216,"lon":-84.508467,"runwayLengthFt":6000,"fireCat":7,"customs":false,"fuel":"jet-a1","etopsAlternate":false},{"iata":"YBC","icao":"CYBC","name":"Baie-Comeau Airport","country":"CA","lat":49.1325,"lon":-68.204399,"runwayLengthFt":6000,"fireCat":7,"customs":false,"fuel":"jet-a1","etopsAlternate":false},{"iata":"YBG","icao":"CYBG","name":"Saguenay-Bagotville Airport","country":"CA","lat":48.330123,"lon":-70.992012,"runwayLengthFt":10000,"fireCat":7,"customs":false,"fuel":"jet-a1","etopsAlternate":false},{"iata":"YBL","icao":"CYBL","name":"Campbell River Airport","country":"CA","lat":49.950802,"lon":-125.271004,"runwayLengthFt":6499,"fireCat":7,"customs":false,"fuel":"jet-a1","etopsAlternate":false},{"iata":"YBR","icao":"CYBR","name":"Brandon Municipal Airport","country":"CA","lat":49.91,"lon":-99.951897,"runwayLengthFt":6500,"fireCat":7,"customs":false,"fuel":"jet-a1","etopsAlternate":false},{"iata":"YCD","icao":"CYCD","name":"Nanaimo Airport","country":"CA","lat":49.05497,"lon":-123.869863,"runwayLengthFt":6602,"fireCat":7,"customs":false,"fuel":"jet-a1","etopsAlternate":false},{"iata":"YCH","icao":"CYCH","name":"Miramichi Airport","country":"CA","lat":47.007801,"lon":-65.449203,"runwayLengthFt":10006,"fireCat":7,"customs":false,"fuel":"none","etopsAlternate":false},{"iata":"YCL","icao":"CYCL","name":"Charlo Airport","country":"CA","lat":47.990799,"lon":-66.330299,"runwayLengthFt":6000,"fireCat":7,"customs":false,"fuel":"jet-a1","etopsAlternate":false},{"iata":"YDF","icao":"CYDF","name":"Deer Lake Airport","country":"CA","lat":49.208159,"lon":-57.396147,"runwayLengthFt":8005,"fireCat":7,"customs":false,"fuel":"jet-a1","etopsAlternate":false},{"iata":"YEG","icao":"CYEG","name":"Edmonton International Airport","country":"CA","lat":53.3097,"lon":-113.580002,"runwayLengthFt":11000,"fireCat":9,"customs":true,"fuel":"jet-a1","etopsAlternate":true},{"iata":"YET","icao":"CYET","name":"Edson Airport","country":"CA","lat":53.578899383499994,"lon":-116.464996338,"runwayLengthFt":6000,"fireCat":7,"customs":false,"fuel":"none","etopsAlternate":false},{"iata":"YEV","icao":"CYEV","name":"Inuvik Mike Zubko Airport","country":"CA","lat":68.30419921880001,"lon":-133.483001709,"runwayLengthFt":6000,"fireCat":7,"customs":false,"fuel":"jet-a1","etopsAlternate":false},{"iata":"YFB","icao":"CYFB","name":"Iqaluit Airport","country":"CA","lat":63.756402,"lon":-68.555801,"runwayLengthFt":8605,"fireCat":7,"customs":false,"fuel":"jet-a1","etopsAlternate":false},{"iata":"YFC","icao":"CYFC","name":"Fredericton International Airport","country":"CA","lat":45.868697,"lon":-66.529891,"runwayLengthFt":8005,"fireCat":7,"customs":false,"fuel":"jet-a1","etopsAlternate":false},{"iata":"YFS","icao":"CYFS","name":"Fort Simpson Airport","country":"CA","lat":61.76020050048828,"lon":-121.23699951171875,"runwayLengthFt":6000,"fireCat":7,"customs":false,"fuel":"jet-a1","etopsAlternate":false},{"iata":"YGK","icao":"CYGK","name":"Kingston Norman Rogers Airport","country":"CA","lat":44.2253,"lon":-76.596901,"runwayLengthFt":6001,"fireCat":7,"customs":false,"fuel":"none","etopsAlternate":false},{"iata":"YGL","icao":"CYGL","name":"La Grande Rivière Airport","country":"CA","lat":53.625301361083984,"lon":-77.7042007446289,"runwayLengthFt":6500,"fireCat":7,"customs":false,"fuel":"jet-a1","etopsAlternate":false},{"iata":"YGM","icao":"CYGM","name":"Gimli Industrial Park Airport","country":"CA","lat":50.62810134887695,"lon":-97.04329681396484,"runwayLengthFt":6800,"fireCat":7,"customs":false,"fuel":"none","etopsAlternate":false},{"iata":"YHM","icao":"CYHM","name":"John C. Munro Hamilton International Airport","country":"CA","lat":43.17348,"lon":-79.931185,"runwayLengthFt":10006,"fireCat":7,"customs":false,"fuel":"jet-a1","etopsAlternate":false},{"iata":"YHU","icao":"CYHU","name":"Montréal / Saint-Hubert Metropolitan Airport","country":"CA","lat":45.517502,"lon":-73.416901,"runwayLengthFt":7840,"fireCat":7,"customs":false,"fuel":"jet-a1","etopsAlternate":false},{"iata":"YHY","icao":"CYHY","name":"Hay River / Merlyn Carter Airport","country":"CA","lat":60.8396987915,"lon":-115.782997131,"runwayLengthFt":6000,"fireCat":7,"customs":false,"fuel":"jet-a1","etopsAlternate":false},{"iata":"YHZ","icao":"CYHZ","name":"Halifax / Stanfield International Airport","country":"CA","lat":44.8807983398,"lon":-63.5085983276,"runwayLengthFt":10500,"fireCat":9,"customs":true,"fuel":"jet-a1","etopsAlternate":true},{"iata":"YJT","icao":"CYJT","name":"Stephenville Dymond International Airport","country":"CA","lat":48.54339,"lon":-58.552892,"runwayLengthFt":10000,"fireCat":7,"customs":false,"fuel":"jet-a1","etopsAlternate":false},{"iata":"YKA","icao":"CYKA","name":"Kamloops John Moose Fulton Field Regional Airport","country":"CA","lat":50.703038,"lon":-120.448641,"runwayLengthFt":8000,"fireCat":7,"customs":false,"fuel":"jet-a1","etopsAlternate":false},{"iata":"YKF","icao":"CYKF","name":"Region of Waterloo International Airport","country":"CA","lat":43.4608,"lon":-80.378601,"runwayLengthFt":7003,"fireCat":7,"customs":false,"fuel":"jet-a1","etopsAlternate":false},{"iata":"YLK","icao":"CYLS","name":"Barrie-Lake Simcoe Regional Airport","country":"CA","lat":44.485056,"lon":-79.554663,"runwayLengthFt":6001,"fireCat":7,"customs":false,"fuel":"jet-a1","etopsAlternate":false},{"iata":"YLW","icao":"CYLW","name":"Kelowna International Airport","country":"CA","lat":49.9561,"lon":-119.377998,"runwayLengthFt":8900,"fireCat":9,"customs":true,"fuel":"jet-a1","etopsAlternate":true},{"iata":"YMJ","icao":"CYMJ","name":"Moose Jaw Air Vice Marshal C. M. McEwen Airport","country":"CA","lat":50.330299377441406,"lon":-105.55899810791016,"runwayLengthFt":8326,"fireCat":7,"customs":false,"fuel":"none","etopsAlternate":false},{"iata":"YMM","icao":"CYMM","name":"Fort McMurray International Airport","country":"CA","lat":56.653301,"lon":-111.222,"runwayLengthFt":7503,"fireCat":7,"customs":false,"fuel":"jet-a1","etopsAlternate":false},{"iata":"YMT","icao":"CYMT","name":"Chapais Airport","country":"CA","lat":49.77190017700195,"lon":-74.5280990600586,"runwayLengthFt":6496,"fireCat":7,"customs":false,"fuel":"jet-a1","etopsAlternate":false},{"iata":"YMX","icao":"CYMX","name":"Montreal Mirabel International Airport","country":"CA","lat":45.679501,"lon":-74.038696,"runwayLengthFt":12000,"fireCat":7,"customs":false,"fuel":"jet-a1","etopsAlternate":false},{"iata":"YND","icao":"CYND","name":"Ottawa / Gatineau Airport","country":"CA","lat":45.521702,"lon":-75.563599,"runwayLengthFt":6000,"fireCat":7,"customs":false,"fuel":"jet-a1","etopsAlternate":false},{"iata":"YOD","icao":"CYOD","name":"CFB Cold Lake","country":"CA","lat":54.404998779296875,"lon":-110.27899932861328,"runwayLengthFt":12600,"fireCat":7,"customs":false,"fuel":"none","etopsAlternate":false},{"iata":"YOW","icao":"CYOW","name":"Ottawa Macdonald-Cartier International Airport","country":"CA","lat":45.322498,"lon":-75.669197,"runwayLengthFt":10000,"fireCat":9,"customs":true,"fuel":"jet-a1","etopsAlternate":true},{"iata":"YPG","icao":"CYPG","name":"Portage-la-Prairie / Southport Airport","country":"CA","lat":49.903099,"lon":-98.273817,"runwayLengthFt":7000,"fireCat":7,"customs":false,"fuel":"none","etopsAlternate":false},{"iata":"YPQ","icao":"CYPQ","name":"Peterborough Regional Airport","country":"CA","lat":44.232251,"lon":-78.362053,"runwayLengthFt":7005,"fireCat":7,"customs":false,"fuel":"jet-a1","etopsAlternate":false},{"iata":"YPR","icao":"CYPR","name":"Prince Rupert Airport","country":"CA","lat":54.286098480199996,"lon":-130.445007324,"runwayLengthFt":6000,"fireCat":7,"customs":false,"fuel":"jet-a1","etopsAlternate":false},{"iata":"YQA","icao":"CYQA","name":"Muskoka Airport","country":"CA","lat":44.975376,"lon":-79.306546,"runwayLengthFt":6000,"fireCat":7,"customs":false,"fuel":"jet-a1","etopsAlternate":false},{"iata":"YQB","icao":"CYQB","name":"Quebec Jean Lesage International Airport","country":"CA","lat":46.7911,"lon":-71.393303,"runwayLengthFt":9000,"fireCat":9,"customs":true,"fuel":"jet-a1","etopsAlternate":true},{"iata":"YQF","icao":"CYQF","name":"Red Deer Regional Airport","country":"CA","lat":52.182201,"lon":-113.893997,"runwayLengthFt":7500,"fireCat":7,"customs":false,"fuel":"none","etopsAlternate":false},{"iata":"YQG","icao":"CYQG","name":"Windsor International Airport","country":"CA","lat":42.2756,"lon":-82.955597,"runwayLengthFt":9000,"fireCat":7,"customs":false,"fuel":"jet-a1","etopsAlternate":false},{"iata":"YQI","icao":"CYQI","name":"Yarmouth Airport","country":"CA","lat":43.826900482177734,"lon":-66.08809661865234,"runwayLengthFt":6000,"fireCat":7,"customs":false,"fuel":"none","etopsAlternate":false},{"iata":"YQL","icao":"CYQL","name":"Lethbridge County Airport","country":"CA","lat":49.6302986145,"lon":-112.800003052,"runwayLengthFt":6500,"fireCat":7,"customs":false,"fuel":"jet-a1","etopsAlternate":false},{"iata":"YQM","icao":"CYQM","name":"Greater Moncton Roméo LeBlanc International Airport","country":"CA","lat":46.113189,"lon":-64.67719,"runwayLengthFt":10001,"fireCat":7,"customs":false,"fuel":"jet-a1","etopsAlternate":false},{"iata":"YQQ","icao":"CYQQ","name":"Comox Valley International Airport / CFB Comox","country":"CA","lat":49.7108,"lon":-124.887001,"runwayLengthFt":10000,"fireCat":7,"customs":false,"fuel":"jet-a1","etopsAlternate":false},{"iata":"YQR","icao":"CYQR","name":"Regina International Airport","country":"CA","lat":50.431938,"lon":-104.660906,"runwayLengthFt":7900,"fireCat":7,"customs":false,"fuel":"jet-a1","etopsAlternate":false},{"iata":"YQT","icao":"CYQT","name":"Thunder Bay International Airport","country":"CA","lat":48.371899,"lon":-89.323898,"runwayLengthFt":7318,"fireCat":7,"customs":false,"fuel":"jet-a1","etopsAlternate":false},{"iata":"YQU","icao":"CYQU","name":"Grande Prairie Airport","country":"CA","lat":55.1796989441,"lon":-118.885002136,"runwayLengthFt":8502,"fireCat":7,"customs":false,"fuel":"jet-a1","etopsAlternate":false},{"iata":"YQX","icao":"CYQX","name":"Gander International Airport","country":"CA","lat":48.936258,"lon":-54.567719,"runwayLengthFt":10200,"fireCat":7,"customs":false,"fuel":"jet-a1","etopsAlternate":false},{"iata":"YQY","icao":"CYQY","name":"Sydney / J.A. Douglas McCurdy Airport","country":"CA","lat":46.161072,"lon":-60.049759,"runwayLengthFt":7070,"fireCat":7,"customs":false,"fuel":"jet-a1","etopsAlternate":false},{"iata":"YRI","icao":"CYRI","name":"Rivière-du-Loup Airport","country":"CA","lat":47.764400482177734,"lon":-69.58470153808594,"runwayLengthFt":6000,"fireCat":7,"customs":false,"fuel":"none","etopsAlternate":false},{"iata":"YRQ","icao":"CYRQ","name":"Trois-Rivières Airport","country":"CA","lat":46.35279846191406,"lon":-72.67939758300781,"runwayLengthFt":9006,"fireCat":7,"customs":false,"fuel":"none","etopsAlternate":false},{"iata":"YRT","icao":"CYRT","name":"Rankin Inlet Airport","country":"CA","lat":62.8114013672,"lon":-92.1157989502,"runwayLengthFt":6000,"fireCat":7,"customs":false,"fuel":"jet-a1","etopsAlternate":false},{"iata":"YSB","icao":"CYSB","name":"Sudbury Airport","country":"CA","lat":46.625,"lon":-80.79889678955078,"runwayLengthFt":6600,"fireCat":7,"customs":false,"fuel":"jet-a1","etopsAlternate":false},{"iata":"YSC","icao":"CYSC","name":"Sherbrooke Airport","country":"CA","lat":45.438599,"lon":-71.691399,"runwayLengthFt":6000,"fireCat":7,"customs":false,"fuel":"none","etopsAlternate":false},{"iata":"YSJ","icao":"CYSJ","name":"Saint John Airport","country":"CA","lat":45.31610107421875,"lon":-65.89029693603516,"runwayLengthFt":7000,"fireCat":7,"customs":false,"fuel":"jet-a1","etopsAlternate":false},{"iata":"YSM","icao":"CYSM","name":"Fort Smith Airport","country":"CA","lat":60.020302,"lon":-111.961998,"runwayLengthFt":6000,"fireCat":7,"customs":false,"fuel":"jet-a1","etopsAlternate":false},{"iata":"YSU","icao":"CYSU","name":"Summerside Airport","country":"CA","lat":46.440601,"lon":-63.833599,"runwayLengthFt":8000,"fireCat":7,"customs":false,"fuel":"none","etopsAlternate":false},{"iata":"YTR","icao":"CYTR","name":"CFB Trenton","country":"CA","lat":44.118900299072266,"lon":-77.5280990600586,"runwayLengthFt":10000,"fireCat":7,"customs":false,"fuel":"none","etopsAlternate":false},{"iata":"YTS","icao":"CYTS","name":"Timmins/Victor M. Power","country":"CA","lat":48.569698333699996,"lon":-81.376701355,"runwayLengthFt":6000,"fireCat":7,"customs":false,"fuel":"jet-a1","etopsAlternate":false},{"iata":"YUL","icao":"CYUL","name":"Montreal / Pierre Elliott Trudeau International Airport","country":"CA","lat":45.467837,"lon":-73.742294,"runwayLengthFt":11000,"fireCat":9,"customs":true,"fuel":"jet-a1","etopsAlternate":true},{"iata":"YUY","icao":"CYUY","name":"Rouyn Noranda Airport","country":"CA","lat":48.20610046386719,"lon":-78.83560180664062,"runwayLengthFt":7485,"fireCat":7,"customs":false,"fuel":"jet-a1","etopsAlternate":false},{"iata":"YVO","icao":"CYVO","name":"Val-d'Or Airport","country":"CA","lat":48.0532989502,"lon":-77.7827987671,"runwayLengthFt":10000,"fireCat":7,"customs":false,"fuel":"jet-a1","etopsAlternate":false},{"iata":"YVP","icao":"CYVP","name":"Kuujjuaq Airport","country":"CA","lat":58.096099853515625,"lon":-68.4269027709961,"runwayLengthFt":6000,"fireCat":7,"customs":false,"fuel":"jet-a1","etopsAlternate":false},{"iata":"YVR","icao":"CYVR","name":"Vancouver International Airport","country":"CA","lat":49.193901,"lon":-123.183998,"runwayLengthFt":11500,"fireCat":9,"customs":true,"fuel":"jet-a1","etopsAlternate":true},{"iata":"YWG","icao":"CYWG","name":"Winnipeg / James Armstrong Richardson International Airport","country":"CA","lat":49.909999847399995,"lon":-97.2398986816,"runwayLengthFt":11000,"fireCat":9,"customs":true,"fuel":"jet-a1","etopsAlternate":true},{"iata":"YWK","icao":"CYWK","name":"Wabush Airport","country":"CA","lat":52.92190170288086,"lon":-66.8644027709961,"runwayLengthFt":6002,"fireCat":7,"customs":false,"fuel":"jet-a1","etopsAlternate":false},{"iata":"YWL","icao":"CYWL","name":"Williams Lake Airport","country":"CA","lat":52.1831016541,"lon":-122.054000854,"runwayLengthFt":7000,"fireCat":7,"customs":false,"fuel":"jet-a1","etopsAlternate":false},{"iata":"YXC","icao":"CYXC","name":"Cranbrook/Canadian Rockies International Airport","country":"CA","lat":49.610802,"lon":-115.781998,"runwayLengthFt":6000,"fireCat":7,"customs":false,"fuel":"jet-a1","etopsAlternate":false},{"iata":"YXE","icao":"CYXE","name":"Saskatoon John G. Diefenbaker International Airport","country":"CA","lat":52.170723,"lon":-106.700793,"runwayLengthFt":8300,"fireCat":9,"customs":true,"fuel":"jet-a1","etopsAlternate":true},{"iata":"YXJ","icao":"CYXJ","name":"Fort St John / North Peace Regional Airport","country":"CA","lat":56.238098,"lon":-120.739998,"runwayLengthFt":6909,"fireCat":7,"customs":false,"fuel":"jet-a1","etopsAlternate":false},{"iata":"YXS","icao":"CYXS","name":"Prince George (International) Airport","country":"CA","lat":53.884311,"lon":-122.666554,"runwayLengthFt":11450,"fireCat":7,"customs":false,"fuel":"jet-a1","etopsAlternate":false},{"iata":"YXT","icao":"CYXT","name":"Northwest Regional Airport Terrace-Kitimat","country":"CA","lat":54.468498,"lon":-128.576009,"runwayLengthFt":7497,"fireCat":7,"customs":false,"fuel":"jet-a1","etopsAlternate":false},{"iata":"YXU","icao":"CYXU","name":"London International Airport","country":"CA","lat":43.032845,"lon":-81.149003,"runwayLengthFt":8800,"fireCat":7,"customs":false,"fuel":"jet-a1","etopsAlternate":false},{"iata":"YXX","icao":"CYXX","name":"Abbotsford International Airport","country":"CA","lat":49.025299,"lon":-122.361,"runwayLengthFt":9600,"fireCat":7,"customs":false,"fuel":"jet-a1","etopsAlternate":false},{"iata":"YXY","icao":"CYXY","name":"Whitehorse / Erik Nielsen International Airport","country":"CA","lat":60.708533,"lon":-135.065705,"runwayLengthFt":9497,"fireCat":7,"customs":false,"fuel":"jet-a1","etopsAlternate":false},{"iata":"YYB","icao":"CYYB","name":"North Bay Jack Garland Airport","country":"CA","lat":46.363602,"lon":-79.422798,"runwayLengthFt":10000,"fireCat":7,"customs":false,"fuel":"jet-a1","etopsAlternate":false},{"iata":"YYC","icao":"CYYC","name":"Calgary International Airport","country":"CA","lat":51.118822,"lon":-114.009933,"runwayLengthFt":14000,"fireCat":9,"customs":true,"fuel":"jet-a1","etopsAlternate":true},{"iata":"YYE","icao":"CYYE","name":"Fort Nelson Airport","country":"CA","lat":58.8363990784,"lon":-122.597000122,"runwayLengthFt":6400,"fireCat":7,"customs":false,"fuel":"jet-a1","etopsAlternate":false},{"iata":"YYF","icao":"CYYF","name":"Penticton Airport","country":"CA","lat":49.46310043334961,"lon":-119.60199737548828,"runwayLengthFt":6000,"fireCat":7,"customs":false,"fuel":"jet-a1","etopsAlternate":false},{"iata":"YYG","icao":"CYYG","name":"Charlottetown Airport","country":"CA","lat":46.288911,"lon":-63.125174,"runwayLengthFt":7002,"fireCat":7,"customs":false,"fuel":"jet-a1","etopsAlternate":false},{"iata":"YYJ","icao":"CYYJ","name":"Victoria International Airport","country":"CA","lat":48.647201,"lon":-123.427792,"runwayLengthFt":7000,"fireCat":9,"customs":true,"fuel":"jet-a1","etopsAlternate":false},{"iata":"YYQ","icao":"CYYQ","name":"Churchill Airport","country":"CA","lat":58.739200592041016,"lon":-94.06500244140625,"runwayLengthFt":9200,"fireCat":7,"customs":false,"fuel":"jet-a1","etopsAlternate":false},{"iata":"YYR","icao":"CYYR","name":"Goose Bay Airport","country":"CA","lat":53.3191986084,"lon":-60.4258003235,"runwayLengthFt":11046,"fireCat":7,"customs":false,"fuel":"jet-a1","etopsAlternate":false},{"iata":"YYT","icao":"CYYT","name":"St. John's International Airport","country":"CA","lat":47.618599,"lon":-52.7519,"runwayLengthFt":8502,"fireCat":9,"customs":true,"fuel":"jet-a1","etopsAlternate":true},{"iata":"YYY","icao":"CYYY","name":"Mont Joli Airport","country":"CA","lat":48.60860061645508,"lon":-68.20809936523438,"runwayLengthFt":6000,"fireCat":7,"customs":false,"fuel":"jet-a1","etopsAlternate":false},{"iata":"YYZ","icao":"CYYZ","name":"Toronto Pearson International Airport","country":"CA","lat":43.675935,"lon":-79.629421,"runwayLengthFt":11120,"fireCat":9,"customs":true,"fuel":"jet-a1","etopsAlternate":true},{"iata":"YZF","icao":"CYZF","name":"Yellowknife International Airport","country":"CA","lat":62.462799,"lon":-114.440002,"runwayLengthFt":7500,"fireCat":7,"customs":false,"fuel":"jet-a1","etopsAlternate":false},{"iata":"YZV","icao":"CYZV","name":"Sept-Îles Airport","country":"CA","lat":50.22330093383789,"lon":-66.2656021118164,"runwayLengthFt":6552,"fireCat":7,"customs":false,"fuel":"jet-a1","etopsAlternate":false},{"iata":"YZX","icao":"CYZX","name":"CFB Greenwood","country":"CA","lat":44.98440170288086,"lon":-64.91690063476562,"runwayLengthFt":8000,"fireCat":7,"customs":false,"fuel":"none","etopsAlternate":false},{"iata":"WPC","icao":"CZPC","name":"Pincher Creek Airport","country":"CA","lat":49.520429,"lon":-113.997002,"runwayLengthFt":6600,"fireCat":7,"customs":false,"fuel":"none","etopsAlternate":false},{"iata":"BUJ","icao":"DAAD","name":"Bou Saada Airport","country":"DZ","lat":35.3325,"lon":4.20639,"runwayLengthFt":7218,"fireCat":7,"customs":false,"fuel":"none","etopsAlternate":false},{"iata":"BJA","icao":"DAAE","name":"Soummam–Abane Ramdane Airport","country":"DZ","lat":36.712547,"lon":5.069909,"runwayLengthFt":7874,"fireCat":9,"customs":true,"fuel":"jet-a1","etopsAlternate":true},{"iata":"ALG","icao":"DAAG","name":"Houari Boumediene Airport","country":"DZ","lat":36.693886,"lon":3.214531,"runwayLengthFt":11483,"fireCat":9,"customs":true,"fuel":"jet-a1","etopsAlternate":true},{"iata":"DJG","icao":"DAAJ","name":"Tiska Djanet Airport","country":"DZ","lat":24.285448,"lon":9.463652,"runwayLengthFt":9843,"fireCat":9,"customs":true,"fuel":"jet-a1","etopsAlternate":true},{"iata":"","icao":"DAAK","name":"Boufarik Air Base","country":"DZ","lat":36.545799,"lon":2.87611,"runwayLengthFt":11883,"fireCat":7,"customs":false,"fuel":"none","etopsAlternate":false},{"iata":"VVZ","icao":"DAAP","name":"Illizi Takhamalt Airport","country":"DZ","lat":26.723499,"lon":8.62265,"runwayLengthFt":9843,"fireCat":7,"customs":false,"fuel":"jet-a1","etopsAlternate":false},{"iata":"QSF","icao":"DAAS","name":"Ain Arnat Airport","country":"DZ","lat":36.178488,"lon":5.329909,"runwayLengthFt":9498,"fireCat":7,"customs":false,"fuel":"jet-a1","etopsAlternate":false},{"iata":"TMR","icao":"DAAT","name":"Aguenar – Hadj Bey Akhamok Airport","country":"DZ","lat":22.810992,"lon":5.450832,"runwayLengthFt":11811,"fireCat":9,"customs":true,"fuel":"jet-a1","etopsAlternate":true},{"iata":"GJL","icao":"DAAV","name":"Jijel Ferhat Abbas Airport","country":"DZ","lat":36.794125,"lon":5.873652,"runwayLengthFt":7874,"fireCat":9,"customs":true,"fuel":"jet-a1","etopsAlternate":true},{"iata":"MZW","icao":"DAAY","name":"Mecheria Airport","country":"DZ","lat":33.535900116,"lon":-0.242353007197,"runwayLengthFt":11780,"fireCat":7,"customs":false,"fuel":"none","etopsAlternate":false},{"iata":"AAE","icao":"DABB","name":"Annaba Rabah Bitat Airport","country":"DZ","lat":36.826781,"lon":7.81334,"runwayLengthFt":9843,"fireCat":9,"customs":true,"fuel":"jet-a1","etopsAlternate":true},{"iata":"CZL","icao":"DABC","name":"Mohamed Boudiaf International Airport","country":"DZ","lat":36.276001,"lon":6.62039,"runwayLengthFt":9843,"fireCat":9,"customs":true,"fuel":"jet-a1","etopsAlternate":true},{"iata":"TEE","icao":"DABS","name":"Cheikh Larbi Tébessi Airport","country":"DZ","lat":35.4315986633,"lon":8.12071990967,"runwayLengthFt":9843,"fireCat":7,"customs":false,"fuel":"jet-a1","etopsAlternate":false},{"iata":"BLJ","icao":"DABT","name":"Batna Mostefa Ben Boulaid Airport","country":"DZ","lat":35.752102,"lon":6.30859,"runwayLengthFt":9843,"fireCat":9,"customs":true,"fuel":"jet-a1","etopsAlternate":true},{"iata":"HRM","icao":"DAFH","name":"Hassi R'Mel Airport","country":"DZ","lat":32.930401,"lon":3.31154,"runwayLengthFt":9835,"fireCat":7,"customs":false,"fuel":"none","etopsAlternate":false},{"iata":"TID","icao":"DAOB","name":"Abdelhafid Boussouf Bou Chekif Airport","country":"DZ","lat":35.341099,"lon":1.46315,"runwayLengthFt":9843,"fireCat":7,"customs":false,"fuel":"none","etopsAlternate":false},{"iata":"TIN","icao":"DAOF","name":"Tindouf Airport","country":"DZ","lat":27.7003993988,"lon":-8.167099952700001,"runwayLengthFt":9840,"fireCat":7,"customs":false,"fuel":"jet-a1","etopsAlternate":false},{"iata":"CFK","icao":"DAOI","name":"Chlef Aboubakr Belkaid International Airport","country":"DZ","lat":36.216614,"lon":1.341114,"runwayLengthFt":8793,"fireCat":9,"customs":true,"fuel":"jet-a1","etopsAlternate":false},{"iata":"TAF","icao":"DAOL","name":"Oran Tafraoui Airport","country":"DZ","lat":35.5424,"lon":-0.532278,"runwayLengthFt":9037,"fireCat":7,"customs":false,"fuel":"none","etopsAlternate":false},{"iata":"TLM","icao":"DAON","name":"Zenata – Messali El Hadj Airport","country":"DZ","lat":35.012732,"lon":-1.457117,"runwayLengthFt":8530,"fireCat":9,"customs":true,"fuel":"jet-a1","etopsAlternate":true},{"iata":"ORN","icao":"DAOO","name":"Oran Es-Sénia (Ahmed Ben Bella) International Airport","country":"DZ","lat":35.620648,"lon":-0.622486,"runwayLengthFt":11811,"fireCat":9,"customs":true,"fuel":"jet-a1","etopsAlternate":true},{"iata":"CBH","icao":"DAOR","name":"Béchar Boudghene Ben Ali Lotfi Airport","country":"DZ","lat":31.645700454711914,"lon":-2.269860029220581,"runwayLengthFt":12245,"fireCat":7,"customs":false,"fuel":"jet-a1","etopsAlternate":false},{"iata":"BMW","icao":"DATM","name":"Bordj Badji Mokhtar Airport","country":"DZ","lat":21.3778,"lon":0.92698,"runwayLengthFt":9843,"fireCat":7,"customs":false,"fuel":"jet-a1","etopsAlternate":false},{"iata":"AZR","icao":"DAUA","name":"Touat-Cheikh Sidi Mohamed Belkebir Airport","country":"DZ","lat":27.837601,"lon":-0.186414,"runwayLengthFt":9843,"fireCat":7,"customs":false,"fuel":"jet-a1","etopsAlternate":false},{"iata":"BSK","icao":"DAUB","name":"Biskra - Mohamed Khider Airport","country":"DZ","lat":34.79318,"lon":5.738899,"runwayLengthFt":9469,"fireCat":9,"customs":true,"fuel":"jet-a1","etopsAlternate":false},{"iata":"ELG","icao":"DAUE","name":"El Golea Airport","country":"DZ","lat":30.580732,"lon":2.861595,"runwayLengthFt":9843,"fireCat":7,"customs":false,"fuel":"jet-a1","etopsAlternate":false},{"iata":"GHA","icao":"DAUG","name":"Noumérat - Moufdi Zakaria Airport","country":"DZ","lat":32.384102,"lon":3.79411,"runwayLengthFt":10171,"fireCat":7,"customs":false,"fuel":"jet-a1","etopsAlternate":false},{"iata":"HME","icao":"DAUH","name":"Hassi Messaoud-Oued Irara Krim Belkacem Airport","country":"DZ","lat":31.673,"lon":6.14044,"runwayLengthFt":9843,"fireCat":7,"customs":false,"fuel":"jet-a1","etopsAlternate":false},{"iata":"INZ","icao":"DAUI","name":"In Salah Airport","country":"DZ","lat":27.250999,"lon":2.51202,"runwayLengthFt":9843,"fireCat":7,"customs":false,"fuel":"jet-a1","etopsAlternate":false},{"iata":"TGR","icao":"DAUK","name":"Touggourt Sidi Madhi Airport","country":"DZ","lat":33.067799,"lon":6.08867,"runwayLengthFt":9843,"fireCat":7,"customs":false,"fuel":"jet-a1","etopsAlternate":false},{"iata":"LOO","icao":"DAUL","name":"Laghouat - Molay Ahmed Medeghri Airport","country":"DZ","lat":33.7644,"lon":2.92834,"runwayLengthFt":12486,"fireCat":7,"customs":false,"fuel":"none","etopsAlternate":false},{"iata":"ELU","icao":"DAUO","name":"Guemar Airport - مطار قمار بالوادي","country":"DZ","lat":33.511398,"lon":6.77679,"runwayLengthFt":9843,"fireCat":7,"customs":false,"fuel":"jet-a1","etopsAlternate":false},{"iata":"TMX","icao":"DAUT","name":"Timimoun Airport","country":"DZ","lat":29.237101,"lon":0.276033,"runwayLengthFt":9843,"fireCat":7,"customs":false,"fuel":"jet-a1","etopsAlternate":false},{"iata":"OGX","icao":"DAUU","name":"Ain Beida Airport","country":"DZ","lat":31.9172,"lon":5.41278,"runwayLengthFt":10171,"fireCat":7,"customs":false,"fuel":"jet-a1","etopsAlternate":false},{"iata":"IAM","icao":"DAUZ","name":"Zarzaitine - In Aménas Airport","country":"DZ","lat":28.0515,"lon":9.64291,"runwayLengthFt":9843,"fireCat":7,"customs":false,"fuel":"jet-a1","etopsAlternate":false},{"iata":"COO","icao":"DBBB","name":"Cotonou Cadjehoun International Airport","country":"BJ","lat":6.35723,"lon":2.38435,"runwayLengthFt":7874,"fireCat":9,"customs":true,"fuel":"jet-a1","etopsAlternate":true},{"iata":"OUA","icao":"DFFD","name":"Ouagadougou Thomas Sankara International Airport","country":"BF","lat":12.3532,"lon":-1.51242,"runwayLengthFt":9843,"fireCat":9,"customs":true,"fuel":"jet-a1","etopsAlternate":true},{"iata":"BOY","icao":"DFOO","name":"Bobo Dioulasso Airport","country":"BF","lat":11.1601,"lon":-4.33097,"runwayLengthFt":10826,"fireCat":9,"customs":true,"fuel":"jet-a1","etopsAlternate":true},{"iata":"ACC","icao":"DGAA","name":"Kotoka International Airport","country":"GH","lat":5.605189800262451,"lon":-0.16678600013256073,"runwayLengthFt":11165,"fireCat":9,"customs":true,"fuel":"jet-a1","etopsAlternate":true},{"iata":"TML","icao":"DGLE","name":"Yakubu Tali International Airport","country":"GH","lat":9.553909,"lon":-0.86606,"runwayLengthFt":7999,"fireCat":9,"customs":true,"fuel":"jet-a1","etopsAlternate":false},{"iata":"KMS","icao":"DGSI","name":"Prempeh I International Airport","country":"GH","lat":6.71456,"lon":-1.59082,"runwayLengthFt":7612,"fireCat":9,"customs":true,"fuel":"jet-a1","etopsAlternate":true},{"iata":"ABJ","icao":"DIAP","name":"Félix-Houphouët-Boigny International Airport","country":"CI","lat":5.26139,"lon":-3.92629,"runwayLengthFt":9843,"fireCat":9,"customs":true,"fuel":"jet-a1","etopsAlternate":true},{"iata":"BYK","icao":"DIBK","name":"Bouaké Airport","country":"CI","lat":7.7388,"lon":-5.07367,"runwayLengthFt":10827,"fireCat":7,"customs":false,"fuel":"jet-a1","etopsAlternate":false},{"iata":"DJO","icao":"DIDL","name":"Daloa Airport","country":"CI","lat":6.79281,"lon":-6.47319,"runwayLengthFt":6562,"fireCat":7,"customs":false,"fuel":"none","etopsAlternate":false},{"iata":"HGO","icao":"DIKO","name":"Korhogo Airport","country":"CI","lat":9.38718,"lon":-5.55666,"runwayLengthFt":6890,"fireCat":7,"customs":false,"fuel":"jet-a1","etopsAlternate":false},{"iata":"MJC","icao":"DIMN","name":"Man Airport","country":"CI","lat":7.27207,"lon":-7.58736,"runwayLengthFt":6726,"fireCat":7,"customs":false,"fuel":"none","etopsAlternate":false},{"iata":"SPY","icao":"DISP","name":"San Pedro Airport","country":"CI","lat":4.74672,"lon":-6.66082,"runwayLengthFt":6234,"fireCat":7,"customs":false,"fuel":"jet-a1","etopsAlternate":false},{"iata":"ASK","icao":"DIYO","name":"Yamoussoukro International Airport","country":"CI","lat":6.90317,"lon":-5.36558,"runwayLengthFt":9843,"fireCat":9,"customs":false,"fuel":"jet-a1","etopsAlternate":false},{"iata":"DKA","icao":"DN57","name":"Umaru Musa Yar'adua Airport","country":"NG","lat":13.0078,"lon":7.66045,"runwayLengthFt":11352,"fireCat":7,"customs":false,"fuel":"jet-a1","etopsAlternate":false},{"iata":"ABV","icao":"DNAA","name":"Nnamdi Azikiwe International Airport","country":"NG","lat":9.00679,"lon":7.26317,"runwayLengthFt":11842,"fireCat":9,"customs":true,"fuel":"jet-a1","etopsAlternate":true},{"iata":"AKR","icao":"DNAK","name":"Akure Airport","country":"NG","lat":7.246739864349365,"lon":5.3010101318359375,"runwayLengthFt":9195,"fireCat":7,"customs":false,"fuel":"jet-a1","etopsAlternate":false},{"iata":"ABB","icao":"DNAS","name":"Asaba International Airport","country":"NG","lat":6.204167,"lon":6.665278,"runwayLengthFt":11155,"fireCat":9,"customs":true,"fuel":"jet-a1","etopsAlternate":true},{"iata":"BCU","icao":"DNBC","name":"Sir Abubakar Tafawa Balewa Bauchi State International Airport","country":"NG","lat":10.482833,"lon":9.744,"runwayLengthFt":11154,"fireCat":9,"customs":true,"fuel":"jet-a1","etopsAlternate":true},{"iata":"BNI","icao":"DNBE","name":"Benin Airport","country":"NG","lat":6.316979885101318,"lon":5.5995001792907715,"runwayLengthFt":7870,"fireCat":7,"customs":false,"fuel":"jet-a1","etopsAlternate":false},{"iata":"","icao":"DNBY","name":"Bayelsa International Airport","country":"NG","lat":4.95759,"lon":6.203327,"runwayLengthFt":12139,"fireCat":7,"customs":false,"fuel":"jet-a1","etopsAlternate":false},{"iata":"CBQ","icao":"DNCA","name":"Margaret Ekpo International Airport","country":"NG","lat":4.976019859313965,"lon":8.347200393676758,"runwayLengthFt":8040,"fireCat":7,"customs":false,"fuel":"jet-a1","etopsAlternate":false},{"iata":"ENU","icao":"DNEN","name":"Akanu Ibiam International Airport","country":"NG","lat":6.473718,"lon":7.560463,"runwayLengthFt":7879,"fireCat":9,"customs":true,"fuel":"jet-a1","etopsAlternate":true},{"iata":"GMO","icao":"DNGO","name":"Gombe Lawanti International Airport","country":"NG","lat":10.298889,"lon":10.9,"runwayLengthFt":10827,"fireCat":7,"customs":false,"fuel":"jet-a1","etopsAlternate":false},{"iata":"IBA","icao":"DNIB","name":"Ibadan Airport","country":"NG","lat":7.362460136413574,"lon":3.97832989692688,"runwayLengthFt":7875,"fireCat":7,"customs":false,"fuel":"jet-a1","etopsAlternate":false},{"iata":"ILR","icao":"DNIL","name":"General Tunde Idiagbon International Airport","country":"NG","lat":8.44021,"lon":4.49392,"runwayLengthFt":10169,"fireCat":9,"customs":true,"fuel":"jet-a1","etopsAlternate":true},{"iata":"QOW","icao":"DNIM","name":"Sam Mbakwe International Cargo Airport","country":"NG","lat":5.42706,"lon":7.20603,"runwayLengthFt":8858,"fireCat":7,"customs":false,"fuel":"jet-a1","etopsAlternate":false},{"iata":"JOS","icao":"DNJO","name":"Yakubu Gowon Airport","country":"NG","lat":9.639829635620117,"lon":8.869050025939941,"runwayLengthFt":9845,"fireCat":7,"customs":false,"fuel":"jet-a1","etopsAlternate":false},{"iata":"KAD","icao":"DNKA","name":"Kaduna International Airport","country":"NG","lat":10.696,"lon":7.32011,"runwayLengthFt":9843,"fireCat":9,"customs":true,"fuel":"jet-a1","etopsAlternate":true},{"iata":"KAN","icao":"DNKN","name":"Mallam Aminu Kano International Airport","country":"NG","lat":12.045613,"lon":8.523566,"runwayLengthFt":10831,"fireCat":9,"customs":true,"fuel":"jet-a1","etopsAlternate":true},{"iata":"MIU","icao":"DNMA","name":"Maiduguri International Airport","country":"NG","lat":11.854163,"lon":13.080702,"runwayLengthFt":9846,"fireCat":9,"customs":true,"fuel":"jet-a1","etopsAlternate":true},{"iata":"MDI","icao":"DNMK","name":"Makurdi Airport","country":"NG","lat":7.70388,"lon":8.61394,"runwayLengthFt":9830,"fireCat":7,"customs":false,"fuel":"jet-a1","etopsAlternate":false},{"iata":"LOS","icao":"DNMM","name":"Murtala Muhammed International Airport","country":"NG","lat":6.57737,"lon":3.32116,"runwayLengthFt":12794,"fireCat":9,"customs":true,"fuel":"jet-a1","etopsAlternate":true},{"iata":"MXJ","icao":"DNMN","name":"Minna Airport","country":"NG","lat":9.652170181274414,"lon":6.462259769439697,"runwayLengthFt":11153,"fireCat":7,"customs":false,"fuel":"none","etopsAlternate":false},{"iata":"PHC","icao":"DNPO","name":"Port Harcourt International Airport","country":"NG","lat":5.01549,"lon":6.94959,"runwayLengthFt":9843,"fireCat":9,"customs":true,"fuel":"jet-a1","etopsAlternate":true},{"iata":"SKO","icao":"DNSO","name":"Sadiq Abubakar III International Airport","country":"NG","lat":12.915729,"lon":5.207547,"runwayLengthFt":9844,"fireCat":9,"customs":true,"fuel":"jet-a1","etopsAlternate":true},{"iata":"QRW","icao":"DNSU","name":"Warri Airport","country":"NG","lat":5.59821,"lon":5.8187,"runwayLengthFt":6868,"fireCat":7,"customs":false,"fuel":"jet-a1","etopsAlternate":false},{"iata":"YOL","icao":"DNYO","name":"Yola Airport","country":"NG","lat":9.257550239562988,"lon":12.430399894714355,"runwayLengthFt":9840,"fireCat":7,"customs":false,"fuel":"jet-a1","etopsAlternate":false},{"iata":"MFQ","icao":"DRRM","name":"Maradi Airport","country":"NE","lat":13.5025,"lon":7.12675,"runwayLengthFt":6070,"fireCat":7,"customs":false,"fuel":"none","etopsAlternate":false},{"iata":"NIM","icao":"DRRN","name":"Diori Hamani International Airport","country":"NE","lat":13.4815,"lon":2.18361,"runwayLengthFt":9843,"fireCat":9,"customs":true,"fuel":"jet-a1","etopsAlternate":true},{"iata":"THZ","icao":"DRRT","name":"Tahoua Airport","country":"NE","lat":14.8757,"lon":5.26536,"runwayLengthFt":7053,"fireCat":7,"customs":false,"fuel":"none","etopsAlternate":false},{"iata":"AJY","icao":"DRZA","name":"Mano Dayak International Airport","country":"NE","lat":16.966,"lon":8.00011,"runwayLengthFt":9843,"fireCat":7,"customs":false,"fuel":"none","etopsAlternate":false},{"iata":"TBJ","icao":"DTKA","name":"Tabarka-Aïn Draham International Airport","country":"TN","lat":36.98,"lon":8.87694,"runwayLengthFt":9416,"fireCat":7,"customs":false,"fuel":"jet-a1","etopsAlternate":false},{"iata":"MIR","icao":"DTMB","name":"Monastir Habib Bourguiba International Airport","country":"TN","lat":35.75809860229492,"lon":10.75469970703125,"runwayLengthFt":9678,"fireCat":7,"customs":false,"fuel":"jet-a1","etopsAlternate":false},{"iata":"NBE","icao":"DTNH","name":"Enfidha - Hammamet International Airport","country":"TN","lat":36.075833,"lon":10.438611,"runwayLengthFt":10827,"fireCat":7,"customs":false,"fuel":"jet-a1","etopsAlternate":false},{"iata":"TUN","icao":"DTTA","name":"Tunis Carthage International Airport","country":"TN","lat":36.851002,"lon":10.2272,"runwayLengthFt":10499,"fireCat":9,"customs":true,"fuel":"jet-a1","etopsAlternate":true},{"iata":"","icao":"DTTB","name":"Bizerte Sidi Ahmed Air Base","country":"TN","lat":37.242356,"lon":9.787016,"runwayLengthFt":9845,"fireCat":7,"customs":false,"fuel":"none","etopsAlternate":false},{"iata":"","icao":"DTTD","name":"Remada Air Base","country":"TN","lat":32.306198,"lon":10.3821,"runwayLengthFt":7812,"fireCat":7,"customs":false,"fuel":"none","etopsAlternate":false},{"iata":"GAF","icao":"DTTF","name":"Gafsa Ksar International Airport","country":"TN","lat":34.422000885009766,"lon":8.822500228881836,"runwayLengthFt":9514,"fireCat":7,"customs":false,"fuel":"jet-a1","etopsAlternate":false},{"iata":"DJE","icao":"DTTJ","name":"Djerba Zarzis International Airport","country":"TN","lat":33.873719,"lon":10.7773,"runwayLengthFt":10171,"fireCat":9,"customs":true,"fuel":"jet-a1","etopsAlternate":true},{"iata":"EBM","icao":"DTTR","name":"El Borma Airport","country":"TN","lat":31.7043,"lon":9.25462,"runwayLengthFt":8858,"fireCat":7,"customs":false,"fuel":"none","etopsAlternate":false},{"iata":"SFA","icao":"DTTX","name":"Sfax Thyna International Airport","country":"TN","lat":34.717999,"lon":10.691,"runwayLengthFt":9843,"fireCat":9,"customs":true,"fuel":"jet-a1","etopsAlternate":true},{"iata":"TOE","icao":"DTTZ","name":"Tozeur Nefta International Airport","country":"TN","lat":33.939701080322266,"lon":8.110560417175293,"runwayLengthFt":10581,"fireCat":7,"customs":false,"fuel":"jet-a1","etopsAlternate":false},{"iata":"LRL","icao":"DXNG","name":"Niamtougou International Airport","country":"TG","lat":9.766675,"lon":1.090944,"runwayLengthFt":8202,"fireCat":9,"customs":false,"fuel":"jet-a1","etopsAlternate":false},{"iata":"LFW","icao":"DXXX","name":"Lomé–Tokoin International Airport","country":"TG","lat":6.16561,"lon":1.25451,"runwayLengthFt":9847,"fireCat":9,"customs":true,"fuel":"jet-a1","etopsAlternate":true},{"iata":"","icao":"DZ-0016","name":"Amguid Regional Airport","country":"DZ","lat":26.393417,"lon":5.325419,"runwayLengthFt":8858,"fireCat":7,"customs":false,"fuel":"none","etopsAlternate":false},{"iata":"","icao":"EBBE","name":"Beauvechain Air Base","country":"BE","lat":50.758598,"lon":4.76833,"runwayLengthFt":10085,"fireCat":7,"customs":false,"fuel":"none","etopsAlternate":false},{"iata":"","icao":"EBBL","name":"Kleine Brogel Air Base","country":"BE","lat":51.168301,"lon":5.47,"runwayLengthFt":10158,"fireCat":7,"customs":false,"fuel":"none","etopsAlternate":false},{"iata":"BRU","icao":"EBBR","name":"Brussels Airport","country":"BE","lat":50.901402,"lon":4.48444,"runwayLengthFt":11936,"fireCat":9,"customs":true,"fuel":"jet-a1","etopsAlternate":true},{"iata":"CRL","icao":"EBCI","name":"Brussels South Charleroi Airport","country":"BE","lat":50.461963,"lon":4.459562,"runwayLengthFt":10023,"fireCat":9,"customs":true,"fuel":"jet-a1","etopsAlternate":true},{"iata":"","icao":"EBCV","name":"Chièvres Air Base","country":"BE","lat":50.575801849365234,"lon":3.8310000896453857,"runwayLengthFt":8197,"fireCat":7,"customs":false,"fuel":"none","etopsAlternate":false},{"iata":"","icao":"EBFN","name":"Koksijde Air Base","country":"BE","lat":51.090302,"lon":2.65278,"runwayLengthFt":8786,"fireCat":7,"customs":false,"fuel":"none","etopsAlternate":false},{"iata":"","icao":"EBFS","name":"Florennes Air Base","country":"BE","lat":50.2433013916,"lon":4.64583015442,"runwayLengthFt":11105,"fireCat":7,"customs":false,"fuel":"none","etopsAlternate":false},{"iata":"KJK","icao":"EBKT","name":"Flanders International Airport Kortrijk-Wevelgem","country":"BE","lat":50.818878,"lon":3.209551,"runwayLengthFt":6234,"fireCat":7,"customs":false,"fuel":"none","etopsAlternate":false},{"iata":"LGG","icao":"EBLG","name":"Liège Airport","country":"BE","lat":50.638574,"lon":5.443897,"runwayLengthFt":12106,"fireCat":7,"customs":false,"fuel":"jet-a1","etopsAlternate":false},{"iata":"OST","icao":"EBOS","name":"Ostend-Bruges International Airport","country":"BE","lat":51.1998,"lon":2.874673,"runwayLengthFt":10499,"fireCat":9,"customs":true,"fuel":"jet-a1","etopsAlternate":true},{"iata":"AOC","icao":"EDAC","name":"Leipzig–Altenburg Airport","country":"DE","lat":50.981945,"lon":12.506389,"runwayLengthFt":7988,"fireCat":7,"customs":false,"fuel":"none","etopsAlternate":false},{"iata":"HDF","icao":"EDAH","name":"Heringsdorf Airport","country":"DE","lat":53.8787,"lon":14.1523,"runwayLengthFt":7562,"fireCat":7,"customs":false,"fuel":"jet-a1","etopsAlternate":false},{"iata":"FNB","icao":"EDBN","name":"Neubrandenburg Trollenhagen Airport","country":"DE","lat":53.6022,"lon":13.306,"runwayLengthFt":7522,"fireCat":7,"customs":false,"fuel":"none","etopsAlternate":false},{"iata":"","icao":"EDBR","name":"Rothenburg/Görlitz Airfield","country":"DE","lat":51.363335,"lon":14.95,"runwayLengthFt":6562,"fireCat":7,"customs":false,"fuel":"none","etopsAlternate":false},{"iata":"BER","icao":"EDDB","name":"Berlin Brandenburg Airport","country":"DE","lat":52.361738,"lon":13.502341,"runwayLengthFt":13123,"fireCat":9,"customs":true,"fuel":"jet-a1","etopsAlternate":true},{"iata":"DRS","icao":"EDDC","name":"Dresden Airport","country":"DE","lat":51.134123,"lon":13.767831,"runwayLengthFt":9350,"fireCat":9,"customs":true,"fuel":"jet-a1","etopsAlternate":true},{"iata":"ERF","icao":"EDDE","name":"Erfurt-Weimar Airport","country":"DE","lat":50.978281,"lon":10.960713,"runwayLengthFt":8530,"fireCat":9,"customs":true,"fuel":"jet-a1","etopsAlternate":true},{"iata":"FRA","icao":"EDDF","name":"Frankfurt Main Airport","country":"DE","lat":50.026706,"lon":8.55835,"runwayLengthFt":13123,"fireCat":9,"customs":true,"fuel":"jet-a1","etopsAlternate":true},{"iata":"FMO","icao":"EDDG","name":"Münster Osnabrück Airport","country":"DE","lat":52.133816,"lon":7.688482,"runwayLengthFt":7119,"fireCat":9,"customs":true,"fuel":"jet-a1","etopsAlternate":false},{"iata":"HAM","icao":"EDDH","name":"Hamburg Helmut Schmidt Airport","country":"DE","lat":53.630402,"lon":9.98823,"runwayLengthFt":12028,"fireCat":9,"customs":true,"fuel":"jet-a1","etopsAlternate":true},{"iata":"CGN","icao":"EDDK","name":"Cologne Bonn Airport","country":"DE","lat":50.865898,"lon":7.14274,"runwayLengthFt":12516,"fireCat":9,"customs":true,"fuel":"jet-a1","etopsAlternate":true},{"iata":"DUS","icao":"EDDL","name":"Düsseldorf Airport","country":"DE","lat":51.289501,"lon":6.76678,"runwayLengthFt":9842,"fireCat":9,"customs":true,"fuel":"jet-a1","etopsAlternate":true},{"iata":"MUC","icao":"EDDM","name":"Munich Airport","country":"DE","lat":48.353802,"lon":11.7861,"runwayLengthFt":13123,"fireCat":9,"customs":true,"fuel":"jet-a1","etopsAlternate":true},{"iata":"NUE","icao":"EDDN","name":"Nuremberg Airport","country":"DE","lat":49.498699,"lon":11.078056,"runwayLengthFt":8858,"fireCat":9,"customs":true,"fuel":"jet-a1","etopsAlternate":true},{"iata":"LEJ","icao":"EDDP","name":"Leipzig/Halle Airport","country":"DE","lat":51.420657,"lon":12.232705,"runwayLengthFt":11811,"fireCat":9,"customs":true,"fuel":"jet-a1","etopsAlternate":true},{"iata":"SCN","icao":"EDDR","name":"Saarbrücken Airport","country":"DE","lat":49.214545,"lon":7.109735,"runwayLengthFt":6562,"fireCat":7,"customs":false,"fuel":"jet-a1","etopsAlternate":false},{"iata":"STR","icao":"EDDS","name":"Stuttgart Airport","country":"DE","lat":48.689899,"lon":9.22196,"runwayLengthFt":10974,"fireCat":9,"customs":true,"fuel":"jet-a1","etopsAlternate":true},{"iata":"HAJ","icao":"EDDV","name":"Hannover Airport","country":"DE","lat":52.461102,"lon":9.68508,"runwayLengthFt":10499,"fireCat":9,"customs":true,"fuel":"jet-a1","etopsAlternate":true},{"iata":"BRE","icao":"EDDW","name":"Bremen Airport","country":"DE","lat":53.046786,"lon":8.78932,"runwayLengthFt":8642,"fireCat":9,"customs":true,"fuel":"jet-a1","etopsAlternate":true},{"iata":"HHN","icao":"EDFH","name":"Frankfurt-Hahn Airport","country":"DE","lat":49.946353,"lon":7.261734,"runwayLengthFt":12467,"fireCat":9,"customs":true,"fuel":"jet-a1","etopsAlternate":true},{"iata":"XFW","icao":"EDHI","name":"Hamburg-Finkenwerder Airport","country":"DE","lat":53.5352783203125,"lon":9.835556030273438,"runwayLengthFt":8629,"fireCat":7,"customs":false,"fuel":"none","etopsAlternate":false},{"iata":"LBC","icao":"EDHL","name":"Lübeck Blankensee Airport","country":"DE","lat":53.805401,"lon":10.7192,"runwayLengthFt":6896,"fireCat":7,"customs":false,"fuel":"jet-a1","etopsAlternate":false},{"iata":"FMM","icao":"EDJA","name":"Memmingen Allgau Airport","country":"DE","lat":47.988092,"lon":10.238248,"runwayLengthFt":8629,"fireCat":9,"customs":true,"fuel":"jet-a1","etopsAlternate":true},{"iata":"PAD","icao":"EDLP","name":"Paderborn Lippstadt Airport","country":"DE","lat":51.612527,"lon":8.617459,"runwayLengthFt":7152,"fireCat":9,"customs":true,"fuel":"jet-a1","etopsAlternate":false},{"iata":"NRN","icao":"EDLV","name":"Weeze (Niederrhein) Airport","country":"DE","lat":51.601362,"lon":6.141228,"runwayLengthFt":8005,"fireCat":9,"customs":true,"fuel":"jet-a1","etopsAlternate":true},{"iata":"DTM","icao":"EDLW","name":"Dortmund Airport","country":"DE","lat":51.518299,"lon":7.61224,"runwayLengthFt":6562,"fireCat":9,"customs":true,"fuel":"jet-a1","etopsAlternate":false},{"iata":"OBF","icao":"EDMO","name":"Oberpfaffenhofen Airport","country":"DE","lat":48.081402,"lon":11.2831,"runwayLengthFt":7500,"fireCat":7,"customs":false,"fuel":"none","etopsAlternate":false},{"iata":"FDH","icao":"EDNY","name":"Bodensee Airport Friedrichshafen","country":"DE","lat":47.671299,"lon":9.51149,"runwayLengthFt":7729,"fireCat":9,"customs":true,"fuel":"jet-a1","etopsAlternate":true},{"iata":"FKB","icao":"EDSB","name":"Karlsruhe Baden-Baden Airport","country":"DE","lat":48.7794,"lon":8.0805,"runwayLengthFt":9787,"fireCat":9,"customs":true,"fuel":"jet-a1","etopsAlternate":true},{"iata":"LHA","icao":"EDTL","name":"Lahr Airport","country":"DE","lat":48.369301,"lon":7.82772,"runwayLengthFt":9842,"fireCat":7,"customs":false,"fuel":"none","etopsAlternate":false},{"iata":"BWE","icao":"EDVE","name":"Braunschweig-Wolfsburg Airport","country":"DE","lat":52.319199,"lon":10.5561,"runwayLengthFt":7546,"fireCat":7,"customs":false,"fuel":"none","etopsAlternate":false},{"iata":"KSF","icao":"EDVK","name":"Kassel Airport","country":"DE","lat":51.418395,"lon":9.391638,"runwayLengthFt":8202,"fireCat":9,"customs":true,"fuel":"jet-a1","etopsAlternate":true},{"iata":"GWT","icao":"EDXW","name":"Westerland Sylt Airport","country":"DE","lat":54.9132,"lon":8.34047,"runwayLengthFt":6955,"fireCat":7,"customs":false,"fuel":"jet-a1","etopsAlternate":false},{"iata":"","icao":"EEEI","name":"Ämari Air Base","country":"EE","lat":59.259599,"lon":24.204799,"runwayLengthFt":6562,"fireCat":7,"customs":false,"fuel":"none","etopsAlternate":false},{"iata":"URE","icao":"EEKE","name":"Kuressaare Airport","country":"EE","lat":58.22990036010742,"lon":22.50950050354004,"runwayLengthFt":6561,"fireCat":7,"customs":false,"fuel":"jet-a1","etopsAlternate":false},{"iata":"EPU","icao":"EEPU","name":"Pärnu Airport","country":"EE","lat":58.41899871826172,"lon":24.47279930114746,"runwayLengthFt":6463,"fireCat":7,"customs":false,"fuel":"jet-a1","etopsAlternate":false},{"iata":"EES","icao":"EES","name":"Berenice International Airport / Banas Cape Air Base","country":"EG","lat":23.980437,"lon":35.460277,"runwayLengthFt":9930,"fireCat":9,"customs":false,"fuel":"jet-a1","etopsAlternate":false},{"iata":"TLL","icao":"EETN","name":"Lennart Meri Tallinn Airport","country":"EE","lat":59.413246,"lon":24.83264,"runwayLengthFt":11417,"fireCat":9,"customs":true,"fuel":"jet-a1","etopsAlternate":true},{"iata":"ENF","icao":"EFET","name":"Enontekio Airport","country":"FI","lat":68.362602233887,"lon":23.424299240112,"runwayLengthFt":6565,"fireCat":7,"customs":false,"fuel":"jet-a1","etopsAlternate":false},{"iata":"KEV","icao":"EFHA","name":"Halli Airport","country":"FI","lat":61.856039,"lon":24.786686,"runwayLengthFt":8533,"fireCat":7,"customs":false,"fuel":"none","etopsAlternate":false},{"iata":"HEL","icao":"EFHK","name":"Helsinki Vantaa Airport","country":"FI","lat":60.318363,"lon":24.963341,"runwayLengthFt":11286,"fireCat":9,"customs":true,"fuel":"jet-a1","etopsAlternate":true},{"iata":"IVL","icao":"EFIV","name":"Ivalo Airport","country":"FI","lat":68.6073,"lon":27.4053,"runwayLengthFt":8199,"fireCat":9,"customs":true,"fuel":"jet-a1","etopsAlternate":true},{"iata":"JOE","icao":"EFJO","name":"Joensuu Airport","country":"FI","lat":62.658815,"lon":29.619398,"runwayLengthFt":8202,"fireCat":7,"customs":false,"fuel":"jet-a1","etopsAlternate":false},{"iata":"JYV","icao":"EFJY","name":"Jyväskylä Airport","country":"FI","lat":62.399502,"lon":25.678301,"runwayLengthFt":8533,"fireCat":7,"customs":false,"fuel":"jet-a1","etopsAlternate":false},{"iata":"KAU","icao":"EFKA","name":"Kauhava Airfield","country":"FI","lat":63.127102,"lon":23.051399,"runwayLengthFt":8858,"fireCat":7,"customs":false,"fuel":"none","etopsAlternate":false},{"iata":"KEM","icao":"EFKE","name":"Kemi-Tornio Airport","country":"FI","lat":65.778701782227,"lon":24.582099914551,"runwayLengthFt":8212,"fireCat":7,"customs":false,"fuel":"jet-a1","etopsAlternate":false},{"iata":"KAJ","icao":"EFKI","name":"Kajaani Airport","country":"FI","lat":64.2855,"lon":27.6924,"runwayLengthFt":8199,"fireCat":7,"customs":false,"fuel":"jet-a1","etopsAlternate":false},{"iata":"KOK","icao":"EFKK","name":"Kokkola-Pietarsaari Airport","country":"FI","lat":63.721199,"lon":23.143101,"runwayLengthFt":8202,"fireCat":7,"customs":false,"fuel":"jet-a1","etopsAlternate":false},{"iata":"KAO","icao":"EFKS","name":"Kuusamo Airport","country":"FI","lat":65.987602,"lon":29.239401,"runwayLengthFt":8202,"fireCat":7,"customs":false,"fuel":"jet-a1","etopsAlternate":false},{"iata":"KTT","icao":"EFKT","name":"Kittilä International Airport","country":"FI","lat":67.700996,"lon":24.8468,"runwayLengthFt":8202,"fireCat":9,"customs":true,"fuel":"jet-a1","etopsAlternate":true},{"iata":"KUO","icao":"EFKU","name":"Kuopio Airport","country":"FI","lat":63.007099,"lon":27.7978,"runwayLengthFt":9186,"fireCat":9,"customs":true,"fuel":"jet-a1","etopsAlternate":true},{"iata":"LPP","icao":"EFLP","name":"Lappeenranta Airport","country":"FI","lat":61.044601,"lon":28.144743,"runwayLengthFt":8202,"fireCat":9,"customs":true,"fuel":"jet-a1","etopsAlternate":true},{"iata":"MHQ","icao":"EFMA","name":"Mariehamn Airport","country":"FI","lat":60.1222,"lon":19.898199,"runwayLengthFt":6243,"fireCat":9,"customs":true,"fuel":"jet-a1","etopsAlternate":false},{"iata":"OUL","icao":"EFOU","name":"Oulu Airport","country":"FI","lat":64.930099,"lon":25.354601,"runwayLengthFt":8205,"fireCat":9,"customs":true,"fuel":"jet-a1","etopsAlternate":true},{"iata":"POR","icao":"EFPO","name":"Pori Airport","country":"FI","lat":61.4617,"lon":21.799999,"runwayLengthFt":7713,"fireCat":7,"customs":false,"fuel":"jet-a1","etopsAlternate":false},{"iata":"RVN","icao":"EFRO","name":"Rovaniemi Airport","country":"FI","lat":66.563327,"lon":25.829751,"runwayLengthFt":9849,"fireCat":9,"customs":true,"fuel":"jet-a1","etopsAlternate":true},{"iata":"SVL","icao":"EFSA","name":"Savonlinna Airport","country":"FI","lat":61.9431,"lon":28.945101,"runwayLengthFt":7546,"fireCat":7,"customs":false,"fuel":"jet-a1","etopsAlternate":false},{"iata":"SJY","icao":"EFSI","name":"Seinäjoki Airport","country":"FI","lat":62.692101,"lon":22.8323,"runwayLengthFt":6562,"fireCat":7,"customs":false,"fuel":"none","etopsAlternate":false},{"iata":"TMP","icao":"EFTP","name":"Tampere-Pirkkala Airport","country":"FI","lat":61.414101,"lon":23.604401,"runwayLengthFt":8858,"fireCat":9,"customs":true,"fuel":"jet-a1","etopsAlternate":true},{"iata":"TKU","icao":"EFTU","name":"Turku Airport","country":"FI","lat":60.514099,"lon":22.2628,"runwayLengthFt":8202,"fireCat":9,"customs":true,"fuel":"jet-a1","etopsAlternate":true},{"iata":"UTI","icao":"EFUT","name":"Utti Air Base","country":"FI","lat":60.8964,"lon":26.9384,"runwayLengthFt":6562,"fireCat":7,"customs":false,"fuel":"none","etopsAlternate":false},{"iata":"VAA","icao":"EFVA","name":"Vaasa Airport","country":"FI","lat":63.05023,"lon":21.762543,"runwayLengthFt":8727,"fireCat":9,"customs":true,"fuel":"jet-a1","etopsAlternate":true},{"iata":"VRK","icao":"EFVR","name":"Varkaus Airport","country":"FI","lat":62.171101,"lon":27.868601,"runwayLengthFt":6562,"fireCat":7,"customs":false,"fuel":"none","etopsAlternate":false},{"iata":"BFS","icao":"EGAA","name":"Belfast International Airport","country":"GB","lat":54.6575012207,"lon":-6.2158298492399995,"runwayLengthFt":9121,"fireCat":9,"customs":true,"fuel":"jet-a1","etopsAlternate":true},{"iata":"BHD","icao":"EGAC","name":"George Best Belfast City Airport","country":"GB","lat":54.618099,"lon":-5.8725,"runwayLengthFt":6001,"fireCat":7,"customs":false,"fuel":"jet-a1","etopsAlternate":false},{"iata":"LDY","icao":"EGAE","name":"City of Derry Airport","country":"GB","lat":55.042801,"lon":-7.16111,"runwayLengthFt":6460,"fireCat":7,"customs":false,"fuel":"jet-a1","etopsAlternate":false},{"iata":"BHX","icao":"EGBB","name":"Birmingham Airport","country":"GB","lat":52.453899,"lon":-1.74803,"runwayLengthFt":10013,"fireCat":9,"customs":true,"fuel":"jet-a1","etopsAlternate":true},{"iata":"MAN","icao":"EGCC","name":"Manchester Airport","country":"GB","lat":53.349375,"lon":-2.279521,"runwayLengthFt":10007,"fireCat":9,"customs":true,"fuel":"jet-a1","etopsAlternate":true},{"iata":"","icao":"EGDC","name":"Royal Marines Base Chivenor","country":"GB","lat":51.0872,"lon":-4.15034,"runwayLengthFt":6014,"fireCat":7,"customs":false,"fuel":"none","etopsAlternate":false},{"iata":"","icao":"EGDM","name":"MoD Boscombe Down","country":"GB","lat":51.152199,"lon":-1.74741,"runwayLengthFt":10538,"fireCat":7,"customs":false,"fuel":"none","etopsAlternate":false},{"iata":"","icao":"EGDR","name":"RNAS Culdrose","country":"GB","lat":50.08610153198242,"lon":-5.255710124969482,"runwayLengthFt":6006,"fireCat":7,"customs":false,"fuel":"none","etopsAlternate":false},{"iata":"YEO","icao":"EGDY","name":"RNAS Yeovilton","country":"GB","lat":51.009399,"lon":-2.63882,"runwayLengthFt":7580,"fireCat":7,"customs":false,"fuel":"none","etopsAlternate":false},{"iata":"CWL","icao":"EGFF","name":"Cardiff International Airport","country":"GB","lat":51.396702,"lon":-3.34333,"runwayLengthFt":7723,"fireCat":9,"customs":true,"fuel":"jet-a1","etopsAlternate":true},{"iata":"BRS","icao":"EGGD","name":"Bristol Airport","country":"GB","lat":51.382326,"lon":-2.716453,"runwayLengthFt":6597,"fireCat":9,"customs":true,"fuel":"jet-a1","etopsAlternate":false},{"iata":"LPL","icao":"EGGP","name":"Liverpool John Lennon Airport","country":"GB","lat":53.334863,"lon":-2.849637,"runwayLengthFt":7497,"fireCat":9,"customs":true,"fuel":"jet-a1","etopsAlternate":false},{"iata":"LTN","icao":"EGGW","name":"London Luton Airport","country":"GB","lat":51.874699,"lon":-0.368333,"runwayLengthFt":7093,"fireCat":9,"customs":true,"fuel":"jet-a1","etopsAlternate":false},{"iata":"BOH","icao":"EGHH","name":"Bournemouth Airport","country":"GB","lat":50.780483,"lon":-1.839576,"runwayLengthFt":7454,"fireCat":7,"customs":false,"fuel":"jet-a1","etopsAlternate":false},{"iata":"SOU","icao":"EGHI","name":"Southampton Airport","country":"GB","lat":50.950298,"lon":-1.3568,"runwayLengthFt":6191,"fireCat":7,"customs":false,"fuel":"jet-a1","etopsAlternate":false},{"iata":"NQY","icao":"EGHQ","name":"Cornwall Airport Newquay","country":"GB","lat":50.440601,"lon":-4.99541,"runwayLengthFt":9003,"fireCat":7,"customs":false,"fuel":"jet-a1","etopsAlternate":false},{"iata":"LGW","icao":"EGKK","name":"London Gatwick Airport","country":"GB","lat":51.148744,"lon":-0.185739,"runwayLengthFt":10883,"fireCat":9,"customs":true,"fuel":"jet-a1","etopsAlternate":true},{"iata":"FAB","icao":"EGLF","name":"Farnborough Airport","country":"GB","lat":51.275799,"lon":-0.776333,"runwayLengthFt":8005,"fireCat":7,"customs":false,"fuel":"none","etopsAlternate":false},{"iata":"LHR","icao":"EGLL","name":"London Heathrow Airport","country":"GB","lat":51.470748,"lon":-0.459909,"runwayLengthFt":12799,"fireCat":9,"customs":true,"fuel":"jet-a1","etopsAlternate":true},{"iata":"SEN","icao":"EGMC","name":"London Southend Airport","country":"GB","lat":51.570562,"lon":0.693627,"runwayLengthFt":6089,"fireCat":7,"customs":false,"fuel":"jet-a1","etopsAlternate":false},{"iata":"CAX","icao":"EGNC","name":"Carlisle Lake District Airport","country":"GB","lat":54.9375,"lon":-2.80917,"runwayLengthFt":6000,"fireCat":7,"customs":false,"fuel":"none","etopsAlternate":false},{"iata":"BLK","icao":"EGNH","name":"Blackpool Airport","country":"GB","lat":53.771702,"lon":-3.02861,"runwayLengthFt":6129,"fireCat":7,"customs":false,"fuel":"none","etopsAlternate":false},{"iata":"HUY","icao":"EGNJ","name":"Humberside Airport","country":"GB","lat":53.576152,"lon":-0.34954,"runwayLengthFt":7218,"fireCat":7,"customs":false,"fuel":"jet-a1","etopsAlternate":false},{"iata":"LBA","icao":"EGNM","name":"Leeds Bradford Airport","country":"GB","lat":53.865898,"lon":-1.66057,"runwayLengthFt":7381,"fireCat":9,"customs":true,"fuel":"jet-a1","etopsAlternate":false},{"iata":"WRT","icao":"EGNO","name":"Warton Aerodrome","country":"GB","lat":53.745098,"lon":-2.88306,"runwayLengthFt":7946,"fireCat":7,"customs":false,"fuel":"none","etopsAlternate":false},{"iata":"CEG","icao":"EGNR","name":"Hawarden Airport","country":"GB","lat":53.178101,"lon":-2.97778,"runwayLengthFt":6867,"fireCat":7,"customs":false,"fuel":"none","etopsAlternate":false},{"iata":"IOM","icao":"EGNS","name":"Isle of Man Airport","country":"IM","lat":54.083081,"lon":-4.623871,"runwayLengthFt":6923,"fireCat":9,"customs":true,"fuel":"jet-a1","etopsAlternate":false},{"iata":"NCL","icao":"EGNT","name":"Newcastle International Airport","country":"GB","lat":55.037958,"lon":-1.689577,"runwayLengthFt":7644,"fireCat":9,"customs":true,"fuel":"jet-a1","etopsAlternate":true},{"iata":"MME","icao":"EGNV","name":"Teesside International Airport","country":"GB","lat":54.509201,"lon":-1.42941,"runwayLengthFt":7516,"fireCat":7,"customs":false,"fuel":"jet-a1","etopsAlternate":false},{"iata":"EMA","icao":"EGNX","name":"East Midlands Airport","country":"GB","lat":52.8311,"lon":-1.32806,"runwayLengthFt":9495,"fireCat":9,"customs":true,"fuel":"jet-a1","etopsAlternate":true},{"iata":"","icao":"EGOS","name":"RAF Shawbury","country":"GB","lat":52.798199,"lon":-2.66804,"runwayLengthFt":6018,"fireCat":7,"customs":false,"fuel":"none","etopsAlternate":false},{"iata":"VLY","icao":"EGOV","name":"Anglesey Airport","country":"GB","lat":53.2481,"lon":-4.53534,"runwayLengthFt":7513,"fireCat":7,"customs":false,"fuel":"none","etopsAlternate":false},{"iata":"WIC","icao":"EGPC","name":"Wick John O'Groats Airport","country":"GB","lat":58.4589,"lon":-3.09306,"runwayLengthFt":6007,"fireCat":7,"customs":false,"fuel":"jet-a1","etopsAlternate":false},{"iata":"ABZ","icao":"EGPD","name":"Aberdeen International Airport","country":"GB","lat":57.2019,"lon":-2.19778,"runwayLengthFt":6407,"fireCat":9,"customs":true,"fuel":"jet-a1","etopsAlternate":false},{"iata":"INV","icao":"EGPE","name":"Inverness Airport","country":"GB","lat":57.5425,"lon":-4.0475,"runwayLengthFt":6194,"fireCat":7,"customs":false,"fuel":"jet-a1","etopsAlternate":false},{"iata":"GLA","icao":"EGPF","name":"Glasgow Airport","country":"GB","lat":55.871899,"lon":-4.43306,"runwayLengthFt":8730,"fireCat":9,"customs":true,"fuel":"jet-a1","etopsAlternate":true},{"iata":"EDI","icao":"EGPH","name":"Edinburgh Airport","country":"GB","lat":55.950145,"lon":-3.372288,"runwayLengthFt":8392,"fireCat":9,"customs":true,"fuel":"jet-a1","etopsAlternate":true},{"iata":"PIK","icao":"EGPK","name":"Glasgow Prestwick Airport","country":"GB","lat":55.501499,"lon":-4.577182,"runwayLengthFt":9800,"fireCat":9,"customs":true,"fuel":"jet-a1","etopsAlternate":true},{"iata":"BEB","icao":"EGPL","name":"Benbecula Airport","country":"GB","lat":57.481098,"lon":-7.36278,"runwayLengthFt":6027,"fireCat":7,"customs":false,"fuel":"jet-a1","etopsAlternate":false},{"iata":"SYY","icao":"EGPO","name":"Stornoway Airport","country":"GB","lat":58.215599,"lon":-6.33111,"runwayLengthFt":7218,"fireCat":7,"customs":false,"fuel":"jet-a1","etopsAlternate":false},{"iata":"ADX","icao":"EGQL","name":"Leuchars Station Airfield","country":"GB","lat":56.37398,"lon":-2.868862,"runwayLengthFt":8491,"fireCat":7,"customs":false,"fuel":"none","etopsAlternate":false},{"iata":"LMO","icao":"EGQS","name":"RAF Lossiemouth","country":"GB","lat":57.7052,"lon":-3.33917,"runwayLengthFt":9091,"fireCat":7,"customs":false,"fuel":"none","etopsAlternate":false},{"iata":"CBG","icao":"EGSC","name":"Cambridge City Airport","country":"GB","lat":52.205002,"lon":0.175,"runwayLengthFt":6444,"fireCat":7,"customs":false,"fuel":"none","etopsAlternate":false},{"iata":"NWI","icao":"EGSH","name":"Norwich Airport","country":"GB","lat":52.6758,"lon":1.28278,"runwayLengthFt":6043,"fireCat":7,"customs":false,"fuel":"jet-a1","etopsAlternate":false},{"iata":"STN","icao":"EGSS","name":"London Stansted Airport","country":"GB","lat":51.884998,"lon":0.235,"runwayLengthFt":10003,"fireCat":9,"customs":true,"fuel":"jet-a1","etopsAlternate":true},{"iata":"EXT","icao":"EGTE","name":"Exeter International Airport","country":"GB","lat":50.734261,"lon":-3.413984,"runwayLengthFt":6811,"fireCat":7,"customs":false,"fuel":"jet-a1","etopsAlternate":false},{"iata":"LKZ","icao":"EGUL","name":"RAF Lakenheath","country":"GB","lat":52.40954,"lon":0.561161,"runwayLengthFt":8998,"fireCat":7,"customs":false,"fuel":"none","etopsAlternate":false},{"iata":"MHZ","icao":"EGUN","name":"RAF Mildenhall","country":"GB","lat":52.3619,"lon":0.486406,"runwayLengthFt":9213,"fireCat":7,"customs":false,"fuel":"none","etopsAlternate":false},{"iata":"","icao":"EGUW","name":"Wattisham Airfield","country":"GB","lat":52.127451,"lon":0.956189,"runwayLengthFt":7953,"fireCat":7,"customs":false,"fuel":"none","etopsAlternate":false},{"iata":"FFD","icao":"EGVA","name":"RAF Fairford","country":"GB","lat":51.683568,"lon":-1.789172,"runwayLengthFt":9994,"fireCat":7,"customs":false,"fuel":"none","etopsAlternate":false},{"iata":"BZZ","icao":"EGVN","name":"RAF Brize Norton","country":"GB","lat":51.75,"lon":-1.58362,"runwayLengthFt":10007,"fireCat":7,"customs":false,"fuel":"none","etopsAlternate":false},{"iata":"ODH","icao":"EGVO","name":"RAF Odiham","country":"GB","lat":51.2341,"lon":-0.942825,"runwayLengthFt":6030,"fireCat":7,"customs":false,"fuel":"none","etopsAlternate":false},{"iata":"QCY","icao":"EGXC","name":"RAF Coningsby","country":"GB","lat":53.092999,"lon":-0.166014,"runwayLengthFt":9003,"fireCat":7,"customs":false,"fuel":"none","etopsAlternate":false},{"iata":"","icao":"EGXE","name":"RAF Leeming","country":"GB","lat":54.297191,"lon":-1.538944,"runwayLengthFt":7516,"fireCat":7,"customs":false,"fuel":"none","etopsAlternate":false},{"iata":"","icao":"EGXG","name":"Leeds East Airport","country":"GB","lat":53.834747,"lon":-1.194678,"runwayLengthFt":6158,"fireCat":7,"customs":false,"fuel":"none","etopsAlternate":false},{"iata":"BEQ","icao":"EGXH","name":"RAF Honington","country":"GB","lat":52.342602,"lon":0.772939,"runwayLengthFt":9012,"fireCat":7,"customs":false,"fuel":"none","etopsAlternate":false},{"iata":"","icao":"EGXT","name":"RAF Wittering","country":"GB","lat":52.612598,"lon":-0.476453,"runwayLengthFt":9052,"fireCat":7,"customs":false,"fuel":"none","etopsAlternate":false},{"iata":"WTN","icao":"EGXW","name":"RAF Waddington","country":"GB","lat":53.166199,"lon":-0.523811,"runwayLengthFt":9642,"fireCat":7,"customs":false,"fuel":"none","etopsAlternate":false},{"iata":"","icao":"EGYD","name":"RAF Cranwell","country":"GB","lat":53.027308,"lon":-0.493104,"runwayLengthFt":6831,"fireCat":7,"customs":false,"fuel":"none","etopsAlternate":false},{"iata":"KNF","icao":"EGYM","name":"RAF Marham","country":"GB","lat":52.648395,"lon":0.550692,"runwayLengthFt":9131,"fireCat":7,"customs":false,"fuel":"none","etopsAlternate":false},{"iata":"MPN","icao":"EGYP","name":"Mount Pleasant Airport / RAF Mount Pleasant","country":"FK","lat":-51.822642,"lon":-58.445777,"runwayLengthFt":8497,"fireCat":9,"customs":true,"fuel":"jet-a1","etopsAlternate":true},{"iata":"AMS","icao":"EHAM","name":"Amsterdam Airport Schiphol","country":"NL","lat":52.308601,"lon":4.76389,"runwayLengthFt":12467,"fireCat":9,"customs":true,"fuel":"jet-a1","etopsAlternate":true},{"iata":"MST","icao":"EHBK","name":"Maastricht Aachen Airport","country":"NL","lat":50.911087,"lon":5.769401,"runwayLengthFt":9022,"fireCat":9,"customs":true,"fuel":"jet-a1","etopsAlternate":true},{"iata":"","icao":"EHDL","name":"Deelen Air Base","country":"NL","lat":52.0606,"lon":5.87306,"runwayLengthFt":9678,"fireCat":7,"customs":false,"fuel":"none","etopsAlternate":false},{"iata":"EIN","icao":"EHEH","name":"Eindhoven Airport","country":"NL","lat":51.4500999451,"lon":5.37452983856,"runwayLengthFt":9843,"fireCat":9,"customs":true,"fuel":"jet-a1","etopsAlternate":true},{"iata":"GRQ","icao":"EHGG","name":"Groningen Airport Eelde","country":"NL","lat":53.119107,"lon":6.577652,"runwayLengthFt":8202,"fireCat":9,"customs":true,"fuel":"jet-a1","etopsAlternate":true},{"iata":"GLZ","icao":"EHGR","name":"Gilze Rijen Air Base","country":"NL","lat":51.567402,"lon":4.93183,"runwayLengthFt":9081,"fireCat":7,"customs":false,"fuel":"none","etopsAlternate":false},{"iata":"LEY","icao":"EHLE","name":"Lelystad Airport","country":"NL","lat":52.453188,"lon":5.514622,"runwayLengthFt":8858,"fireCat":7,"customs":false,"fuel":"none","etopsAlternate":false},{"iata":"LWR","icao":"EHLW","name":"Leeuwarden Air Base","country":"NL","lat":53.228599548339844,"lon":5.760560035705566,"runwayLengthFt":8045,"fireCat":7,"customs":false,"fuel":"none","etopsAlternate":false},{"iata":"RTM","icao":"EHRD","name":"Rotterdam The Hague Airport","country":"NL","lat":51.956902,"lon":4.43722,"runwayLengthFt":7218,"fireCat":9,"customs":true,"fuel":"jet-a1","etopsAlternate":false},{"iata":"ENS","icao":"EHTW","name":"Twente Airport","country":"NL","lat":52.275833,"lon":6.889167,"runwayLengthFt":9801,"fireCat":7,"customs":false,"fuel":"none","etopsAlternate":false},{"iata":"UDE","icao":"EHVK","name":"Volkel Air Base","country":"NL","lat":51.657222,"lon":5.707778,"runwayLengthFt":9931,"fireCat":7,"customs":false,"fuel":"none","etopsAlternate":false},{"iata":"WOE","icao":"EHWO","name":"Woensdrecht Air Base","country":"NL","lat":51.4491,"lon":4.34203,"runwayLengthFt":8015,"fireCat":7,"customs":false,"fuel":"none","etopsAlternate":false},{"iata":"ORK","icao":"EICK","name":"Cork International Airport","country":"IE","lat":51.841301,"lon":-8.49111,"runwayLengthFt":6998,"fireCat":9,"customs":true,"fuel":"jet-a1","etopsAlternate":false},{"iata":"DUB","icao":"EIDW","name":"Dublin Airport","country":"IE","lat":53.428713,"lon":-6.262121,"runwayLengthFt":10203,"fireCat":9,"customs":true,"fuel":"jet-a1","etopsAlternate":true},{"iata":"NOC","icao":"EIKN","name":"Ireland West Airport Knock","country":"IE","lat":53.910439,"lon":-8.817002,"runwayLengthFt":7546,"fireCat":9,"customs":true,"fuel":"jet-a1","etopsAlternate":true},{"iata":"KIR","icao":"EIKY","name":"Kerry Airport","country":"IE","lat":52.180901,"lon":-9.52378,"runwayLengthFt":6562,"fireCat":7,"customs":false,"fuel":"jet-a1","etopsAlternate":false},{"iata":"","icao":"EIME","name":"Casement Air Base","country":"IE","lat":53.301700592,"lon":-6.451330184940001,"runwayLengthFt":6001,"fireCat":7,"customs":false,"fuel":"none","etopsAlternate":false},{"iata":"SNN","icao":"EINN","name":"Shannon Airport","country":"IE","lat":52.702,"lon":-8.92482,"runwayLengthFt":10495,"fireCat":9,"customs":true,"fuel":"jet-a1","etopsAlternate":true},{"iata":"AAR","icao":"EKAH","name":"Aarhus Airport","country":"DK","lat":56.303331,"lon":10.618286,"runwayLengthFt":9111,"fireCat":9,"customs":true,"fuel":"jet-a1","etopsAlternate":true},{"iata":"BLL","icao":"EKBI","name":"Billund Airport","country":"DK","lat":55.740335,"lon":9.157019,"runwayLengthFt":10172,"fireCat":9,"customs":true,"fuel":"jet-a1","etopsAlternate":true},{"iata":"CPH","icao":"EKCH","name":"Copenhagen Kastrup Airport","country":"DK","lat":55.617900848389,"lon":12.656000137329,"runwayLengthFt":11811,"fireCat":9,"customs":true,"fuel":"jet-a1","etopsAlternate":true},{"iata":"EBJ","icao":"EKEB","name":"Esbjerg Airport","country":"DK","lat":55.525902,"lon":8.5534,"runwayLengthFt":8527,"fireCat":7,"customs":false,"fuel":"jet-a1","etopsAlternate":false},{"iata":"KRP","icao":"EKKA","name":"Midtjyllands Airport / Air Base Karup","country":"DK","lat":56.297139,"lon":9.104311,"runwayLengthFt":9816,"fireCat":7,"customs":false,"fuel":"jet-a1","etopsAlternate":false},{"iata":"ODE","icao":"EKOD","name":"Odense Hans Christian Andersen Airport","country":"DK","lat":55.475307,"lon":10.327206,"runwayLengthFt":6053,"fireCat":9,"customs":true,"fuel":"jet-a1","etopsAlternate":false},{"iata":"RNN","icao":"EKRN","name":"Bornholm Airport","country":"DK","lat":55.063301,"lon":14.7596,"runwayLengthFt":6568,"fireCat":7,"customs":false,"fuel":"jet-a1","etopsAlternate":false},{"iata":"SKS","icao":"EKSP","name":"Skrydstrup Air Base","country":"DK","lat":55.221048,"lon":9.26702,"runwayLengthFt":9863,"fireCat":7,"customs":false,"fuel":"none","etopsAlternate":false},{"iata":"AAL","icao":"EKYT","name":"Aalborg Airport","country":"DK","lat":57.094763,"lon":9.84993,"runwayLengthFt":8707,"fireCat":9,"customs":true,"fuel":"jet-a1","etopsAlternate":true},{"iata":"LUX","icao":"ELLX","name":"Luxembourg-Findel International Airport","country":"LU","lat":49.626845,"lon":6.212134,"runwayLengthFt":13123,"fireCat":9,"customs":true,"fuel":"jet-a1","etopsAlternate":true},{"iata":"AES","icao":"ENAL","name":"Ålesund Airport","country":"NO","lat":62.560443,"lon":6.110845,"runwayLengthFt":7592,"fireCat":9,"customs":true,"fuel":"jet-a1","etopsAlternate":true},{"iata":"ANX","icao":"ENAN","name":"Andøya Airport, Andenes","country":"NO","lat":69.295193,"lon":16.139379,"runwayLengthFt":8097,"fireCat":7,"customs":false,"fuel":"jet-a1","etopsAlternate":false},{"iata":"ALF","icao":"ENAT","name":"Alta Airport","country":"NO","lat":69.976097,"lon":23.3717,"runwayLengthFt":7165,"fireCat":7,"customs":false,"fuel":"jet-a1","etopsAlternate":false},{"iata":"BOO","icao":"ENBO","name":"Bodø Airport","country":"NO","lat":67.269203,"lon":14.3653,"runwayLengthFt":9167,"fireCat":9,"customs":true,"fuel":"jet-a1","etopsAlternate":true},{"iata":"BGO","icao":"ENBR","name":"Bergen Airport, Flesland","country":"NO","lat":60.2934,"lon":5.21814,"runwayLengthFt":9810,"fireCat":9,"customs":true,"fuel":"jet-a1","etopsAlternate":true},{"iata":"KRS","icao":"ENCN","name":"Kristiansand Airport","country":"NO","lat":58.204201,"lon":8.08537,"runwayLengthFt":6677,"fireCat":9,"customs":true,"fuel":"jet-a1","etopsAlternate":false},{"iata":"BDU","icao":"ENDU","name":"Bardufoss Airport","country":"NO","lat":69.055801,"lon":18.5404,"runwayLengthFt":8015,"fireCat":7,"customs":false,"fuel":"jet-a1","etopsAlternate":false},{"iata":"EVE","icao":"ENEV","name":"Harstad/Narvik Airport","country":"NO","lat":68.491302,"lon":16.678101,"runwayLengthFt":9236,"fireCat":9,"customs":true,"fuel":"jet-a1","etopsAlternate":true},{"iata":"OSL","icao":"ENGM","name":"Oslo-Gardermoen International Airport","country":"NO","lat":60.193901,"lon":11.1004,"runwayLengthFt":11811,"fireCat":9,"customs":true,"fuel":"jet-a1","etopsAlternate":true},{"iata":"HAU","icao":"ENHD","name":"Haugesund Airport, Karmøy","country":"NO","lat":59.345299,"lon":5.20836,"runwayLengthFt":6957,"fireCat":7,"customs":false,"fuel":"jet-a1","etopsAlternate":false},{"iata":"KSU","icao":"ENKB","name":"Kristiansund Airport, Kvernberget","country":"NO","lat":63.111801,"lon":7.82452,"runwayLengthFt":7841,"fireCat":7,"customs":false,"fuel":"jet-a1","etopsAlternate":false},{"iata":"KKN","icao":"ENKR","name":"Kirkenes Airport, Høybuktmoen","country":"NO","lat":69.7258,"lon":29.8913,"runwayLengthFt":6939,"fireCat":7,"customs":false,"fuel":"jet-a1","etopsAlternate":false},{"iata":"MOL","icao":"ENML","name":"Molde Airport, Årø","country":"NO","lat":62.744701,"lon":7.2625,"runwayLengthFt":6922,"fireCat":7,"customs":false,"fuel":"jet-a1","etopsAlternate":false},{"iata":"LKL","icao":"ENNA","name":"Lakselv Airport, Banak","country":"NO","lat":70.068802,"lon":24.973499,"runwayLengthFt":9147,"fireCat":7,"customs":false,"fuel":"jet-a1","etopsAlternate":false},{"iata":"OLA","icao":"ENOL","name":"Ørland Airport","country":"NO","lat":63.69889831542969,"lon":9.604000091552734,"runwayLengthFt":10755,"fireCat":7,"customs":false,"fuel":"jet-a1","etopsAlternate":false},{"iata":"","icao":"ENRY","name":"Moss Airport, Rygge","country":"NO","lat":59.378817,"lon":10.785439,"runwayLengthFt":8012,"fireCat":7,"customs":false,"fuel":"none","etopsAlternate":false},{"iata":"LYR","icao":"ENSB","name":"Svalbard Airport, Longyear","country":"NO","lat":78.246101,"lon":15.4656,"runwayLengthFt":7608,"fireCat":7,"customs":false,"fuel":"jet-a1","etopsAlternate":false},{"iata":"TOS","icao":"ENTC","name":"Tromsø Airport","country":"NO","lat":69.683296,"lon":18.9189,"runwayLengthFt":8041,"fireCat":9,"customs":true,"fuel":"jet-a1","etopsAlternate":true},{"iata":"TRF","icao":"ENTO","name":"Sandefjord Airport, Torp","country":"NO","lat":59.186699,"lon":10.2586,"runwayLengthFt":9675,"fireCat":9,"customs":true,"fuel":"jet-a1","etopsAlternate":true},{"iata":"TRD","icao":"ENVA","name":"Trondheim Airport, Værnes","country":"NO","lat":63.457802,"lon":10.924,"runwayLengthFt":9052,"fireCat":9,"customs":true,"fuel":"jet-a1","etopsAlternate":true},{"iata":"SVG","icao":"ENZV","name":"Stavanger Airport, Sola","country":"NO","lat":58.876701,"lon":5.63778,"runwayLengthFt":9369,"fireCat":9,"customs":true,"fuel":"jet-a1","etopsAlternate":true},{"iata":"BZG","icao":"EPBY","name":"Ignacy Jan Paderewski Bydgoszcz Airport","country":"PL","lat":53.096802,"lon":17.977699,"runwayLengthFt":8202,"fireCat":7,"customs":false,"fuel":"jet-a1","etopsAlternate":false},{"iata":"","icao":"EPCE","name":"Cewice Naval Air Base","country":"PL","lat":54.416525,"lon":17.765734,"runwayLengthFt":8214,"fireCat":7,"customs":false,"fuel":"none","etopsAlternate":false},{"iata":"","icao":"EPDE","name":"Deblin Military Air Base","country":"PL","lat":51.551021,"lon":21.892322,"runwayLengthFt":8202,"fireCat":7,"customs":false,"fuel":"none","etopsAlternate":false},{"iata":"GDN","icao":"EPGD","name":"Gdańsk Lech Wałęsa Airport","country":"PL","lat":54.377602,"lon":18.4662,"runwayLengthFt":9186,"fireCat":9,"customs":true,"fuel":"jet-a1","etopsAlternate":true},{"iata":"KRK","icao":"EPKK","name":"Kraków John Paul II International Airport","country":"PL","lat":50.077702,"lon":19.7848,"runwayLengthFt":8366,"fireCat":9,"customs":true,"fuel":"jet-a1","etopsAlternate":true},{"iata":"","icao":"EPKS","name":"Krzesiny Military Air Base","country":"PL","lat":52.331699,"lon":16.9664,"runwayLengthFt":8202,"fireCat":7,"customs":false,"fuel":"none","etopsAlternate":false},{"iata":"KTW","icao":"EPKT","name":"Katowice Wojciech Korfanty International Airport","country":"PL","lat":50.476015,"lon":19.080705,"runwayLengthFt":10499,"fireCat":9,"customs":true,"fuel":"jet-a1","etopsAlternate":true},{"iata":"LUZ","icao":"EPLB","name":"Lublin Airport","country":"PL","lat":51.240157,"lon":22.713461,"runwayLengthFt":8268,"fireCat":9,"customs":true,"fuel":"jet-a1","etopsAlternate":true},{"iata":"","icao":"EPLK","name":"Łask Air Base","country":"PL","lat":51.551701,"lon":19.1791,"runwayLengthFt":9843,"fireCat":7,"customs":false,"fuel":"none","etopsAlternate":false},{"iata":"LCJ","icao":"EPLL","name":"Łódź Władysław Reymont Airport","country":"PL","lat":51.721901,"lon":19.3981,"runwayLengthFt":8202,"fireCat":9,"customs":true,"fuel":"jet-a1","etopsAlternate":true},{"iata":"","icao":"EPLY","name":"Leźnica Wielka Air Base","country":"PL","lat":52.004945,"lon":19.143792,"runwayLengthFt":8202,"fireCat":7,"customs":false,"fuel":"none","etopsAlternate":false},{"iata":"","icao":"EPMB","name":"Malbork Królewo Air Base","country":"PL","lat":54.026598,"lon":19.135718,"runwayLengthFt":8202,"fireCat":7,"customs":false,"fuel":"none","etopsAlternate":false},{"iata":"","icao":"EPMI","name":"Miroslawiec Military Air Base","country":"PL","lat":53.3951,"lon":16.0828,"runwayLengthFt":8202,"fireCat":7,"customs":false,"fuel":"none","etopsAlternate":false},{"iata":"","icao":"EPMM","name":"Minsk Mazowiecki Military Air Base","country":"PL","lat":52.1954994202,"lon":21.6558990479,"runwayLengthFt":8245,"fireCat":7,"customs":false,"fuel":"none","etopsAlternate":false},{"iata":"WMI","icao":"EPMO","name":"Warsaw Modlin Airport","country":"PL","lat":52.451099,"lon":20.6518,"runwayLengthFt":8202,"fireCat":9,"customs":true,"fuel":"jet-a1","etopsAlternate":false},{"iata":"POZ","icao":"EPPO","name":"Poznań-Ławica Airport","country":"PL","lat":52.421598,"lon":16.823359,"runwayLengthFt":8215,"fireCat":9,"customs":true,"fuel":"jet-a1","etopsAlternate":true},{"iata":"","icao":"EPPW","name":"Powidz Military Air Base","country":"PL","lat":52.380087,"lon":17.853155,"runwayLengthFt":11565,"fireCat":7,"customs":false,"fuel":"none","etopsAlternate":false},{"iata":"RDO","icao":"EPRA","name":"Warsaw Radom Airport","country":"PL","lat":51.38937,"lon":21.214742,"runwayLengthFt":8202,"fireCat":7,"customs":false,"fuel":"jet-a1","etopsAlternate":false},{"iata":"RZE","icao":"EPRZ","name":"Rzeszów-Jasionka Airport","country":"PL","lat":50.109791,"lon":22.024155,"runwayLengthFt":10498,"fireCat":9,"customs":true,"fuel":"jet-a1","etopsAlternate":true},{"iata":"SZZ","icao":"EPSC","name":"Solidarity Szczecin–Goleniów Airport","country":"PL","lat":53.584702,"lon":14.9022,"runwayLengthFt":8202,"fireCat":9,"customs":true,"fuel":"jet-a1","etopsAlternate":true},{"iata":"","icao":"EPSN","name":"Swidwin Military Air Base","country":"PL","lat":53.7906,"lon":15.8263,"runwayLengthFt":8200,"fireCat":7,"customs":false,"fuel":"none","etopsAlternate":false},{"iata":"SZY","icao":"EPSY","name":"Olsztyn-Mazury Airport","country":"PL","lat":53.481899,"lon":20.9377,"runwayLengthFt":8202,"fireCat":7,"customs":false,"fuel":"jet-a1","etopsAlternate":false},{"iata":"","icao":"EPTM","name":"Tomaszów Mazowiecki Military Air Base","country":"PL","lat":51.5844,"lon":20.097799,"runwayLengthFt":6560,"fireCat":7,"customs":false,"fuel":"none","etopsAlternate":false},{"iata":"WAW","icao":"EPWA","name":"Warsaw Chopin Airport","country":"PL","lat":52.165699,"lon":20.9671,"runwayLengthFt":12106,"fireCat":9,"customs":true,"fuel":"jet-a1","etopsAlternate":true},{"iata":"WRO","icao":"EPWR","name":"Copernicus Wrocław Airport","country":"PL","lat":51.103719,"lon":16.882096,"runwayLengthFt":8212,"fireCat":9,"customs":true,"fuel":"jet-a1","etopsAlternate":true},{"iata":"IEG","icao":"EPZG","name":"Zielona Góra-Babimost Airport","country":"PL","lat":52.1385,"lon":15.7986,"runwayLengthFt":8202,"fireCat":7,"customs":false,"fuel":"jet-a1","etopsAlternate":false},{"iata":"","icao":"ESCF","name":"Malmen Air Base","country":"SE","lat":58.397666,"lon":15.522422,"runwayLengthFt":7265,"fireCat":7,"customs":false,"fuel":"none","etopsAlternate":false},{"iata":"RNB","icao":"ESDF","name":"Ronneby Airport","country":"SE","lat":56.266701,"lon":15.265,"runwayLengthFt":7648,"fireCat":7,"customs":false,"fuel":"jet-a1","etopsAlternate":false},{"iata":"","icao":"ESFR","name":"Råda Air Base","country":"SE","lat":58.4981,"lon":13.0532,"runwayLengthFt":6517,"fireCat":7,"customs":false,"fuel":"none","etopsAlternate":false},{"iata":"GOT","icao":"ESGG","name":"Göteborg Landvetter Airport","country":"SE","lat":57.6628,"lon":12.2798,"runwayLengthFt":10823,"fireCat":9,"customs":true,"fuel":"jet-a1","etopsAlternate":true},{"iata":"JKG","icao":"ESGJ","name":"Jönköping Airport","country":"SE","lat":57.757598876953125,"lon":14.068699836730957,"runwayLengthFt":7228,"fireCat":7,"customs":false,"fuel":"jet-a1","etopsAlternate":false},{"iata":"","icao":"ESIB","name":"Såtenäs Air Base","country":"SE","lat":58.426399,"lon":12.7144,"runwayLengthFt":7428,"fireCat":7,"customs":false,"fuel":"none","etopsAlternate":false},{"iata":"NYO","icao":"ESKN","name":"Stockholm Skavsta Airport","country":"SE","lat":58.789656,"lon":16.911479,"runwayLengthFt":9442,"fireCat":9,"customs":true,"fuel":"jet-a1","etopsAlternate":true},{"iata":"SCR","icao":"ESKS","name":"Scandinavian Mountains Airport","country":"SE","lat":61.16508,"lon":12.83352,"runwayLengthFt":8202,"fireCat":9,"customs":true,"fuel":"jet-a1","etopsAlternate":false},{"iata":"KID","icao":"ESMK","name":"Kristianstad Airport","country":"SE","lat":55.9217,"lon":14.0855,"runwayLengthFt":7267,"fireCat":7,"customs":false,"fuel":"none","etopsAlternate":false},{"iata":"KLR","icao":"ESMQ","name":"Kalmar Airport","country":"SE","lat":56.685501,"lon":16.2876,"runwayLengthFt":6726,"fireCat":7,"customs":false,"fuel":"jet-a1","etopsAlternate":false},{"iata":"MMX","icao":"ESMS","name":"Malmö Sturup Airport","country":"SE","lat":55.535564,"lon":13.376327,"runwayLengthFt":9186,"fireCat":9,"customs":true,"fuel":"jet-a1","etopsAlternate":true},{"iata":"HAD","icao":"ESMT","name":"Halmstad Airport","country":"SE","lat":56.69110107421875,"lon":12.820199966430664,"runwayLengthFt":7419,"fireCat":7,"customs":false,"fuel":"jet-a1","etopsAlternate":false},{"iata":"VXO","icao":"ESMX","name":"Växjö Kronoberg Airport","country":"SE","lat":56.929100036621094,"lon":14.727999687194824,"runwayLengthFt":6900,"fireCat":7,"customs":false,"fuel":"jet-a1","etopsAlternate":false},{"iata":"KRF","icao":"ESNK","name":"Kramfors-Sollefteå Höga Kusten Airport","country":"SE","lat":63.048599,"lon":17.7689,"runwayLengthFt":6565,"fireCat":7,"customs":false,"fuel":"jet-a1","etopsAlternate":false},{"iata":"LYC","icao":"ESNL","name":"Lycksele Airport","country":"SE","lat":64.548302,"lon":18.7162,"runwayLengthFt":6564,"fireCat":7,"customs":false,"fuel":"jet-a1","etopsAlternate":false},{"iata":"SDL","icao":"ESNN","name":"Sundsvall-Härnösand Airport","country":"SE","lat":62.528099060058594,"lon":17.443899154663086,"runwayLengthFt":6857,"fireCat":7,"customs":false,"fuel":"jet-a1","etopsAlternate":false},{"iata":"OER","icao":"ESNO","name":"Örnsköldsvik Airport","country":"SE","lat":63.40829849243164,"lon":18.989999771118164,"runwayLengthFt":6607,"fireCat":7,"customs":false,"fuel":"jet-a1","etopsAlternate":false},{"iata":"KRN","icao":"ESNQ","name":"Kiruna Airport","country":"SE","lat":67.821999,"lon":20.3368,"runwayLengthFt":8209,"fireCat":9,"customs":true,"fuel":"jet-a1","etopsAlternate":true},{"iata":"SFT","icao":"ESNS","name":"Skellefteå Airport","country":"SE","lat":64.62480163574219,"lon":21.076900482177734,"runwayLengthFt":8268,"fireCat":7,"customs":false,"fuel":"jet-a1","etopsAlternate":false},{"iata":"UME","icao":"ESNU","name":"Umeå Airport","country":"SE","lat":63.791801,"lon":20.282801,"runwayLengthFt":7551,"fireCat":9,"customs":true,"fuel":"jet-a1","etopsAlternate":true},{"iata":"AJR","icao":"ESNX","name":"Arvidsjaur Airport","country":"SE","lat":65.59030151367188,"lon":19.28190040588379,"runwayLengthFt":8201,"fireCat":7,"customs":false,"fuel":"jet-a1","etopsAlternate":false},{"iata":"SOO","icao":"ESNY","name":"Söderhamn Airport","country":"SE","lat":61.261501,"lon":17.0991,"runwayLengthFt":8281,"fireCat":7,"customs":false,"fuel":"none","etopsAlternate":false},{"iata":"OSD","icao":"ESNZ","name":"Åre Östersund Airport","country":"SE","lat":63.193546,"lon":14.504168,"runwayLengthFt":8202,"fireCat":7,"customs":false,"fuel":"jet-a1","etopsAlternate":false},{"iata":"ORB","icao":"ESOE","name":"Örebro Airport","country":"SE","lat":59.22370147705078,"lon":15.038000106811523,"runwayLengthFt":10728,"fireCat":7,"customs":false,"fuel":"jet-a1","etopsAlternate":false},{"iata":"KSD","icao":"ESOK","name":"Karlstad Airport","country":"SE","lat":59.444698,"lon":13.3374,"runwayLengthFt":8255,"fireCat":7,"customs":false,"fuel":"jet-a1","etopsAlternate":false},{"iata":"VST","icao":"ESOW","name":"Stockholm Västerås Airport","country":"SE","lat":59.589401,"lon":16.6336,"runwayLengthFt":8468,"fireCat":9,"customs":true,"fuel":"jet-a1","etopsAlternate":true},{"iata":"LLA","icao":"ESPA","name":"Luleå Airport","country":"SE","lat":65.5438,"lon":22.122,"runwayLengthFt":10990,"fireCat":9,"customs":true,"fuel":"jet-a1","etopsAlternate":true},{"iata":"ARN","icao":"ESSA","name":"Stockholm-Arlanda Airport","country":"SE","lat":59.64849,"lon":17.928829,"runwayLengthFt":10830,"fireCat":9,"customs":true,"fuel":"jet-a1","etopsAlternate":true},{"iata":"BLE","icao":"ESSD","name":"Dala Airport","country":"SE","lat":60.422001,"lon":15.5152,"runwayLengthFt":7579,"fireCat":7,"customs":false,"fuel":"jet-a1","etopsAlternate":false},{"iata":"GVX","icao":"ESSK","name":"Gävle Sandviken Airport","country":"SE","lat":60.5933,"lon":16.951401,"runwayLengthFt":6562,"fireCat":7,"customs":false,"fuel":"none","etopsAlternate":false},{"iata":"LPI","icao":"ESSL","name":"Linköping City Airport","country":"SE","lat":58.404909,"lon":15.684499,"runwayLengthFt":7004,"fireCat":9,"customs":true,"fuel":"jet-a1","etopsAlternate":false},{"iata":"NRK","icao":"ESSP","name":"Norrköping Airport","country":"SE","lat":58.586299896240234,"lon":16.250600814819336,"runwayLengthFt":7228,"fireCat":7,"customs":false,"fuel":"jet-a1","etopsAlternate":false},{"iata":"EKT","icao":"ESSU","name":"Eskilstuna Airport","country":"SE","lat":59.351101,"lon":16.708401,"runwayLengthFt":6187,"fireCat":7,"customs":false,"fuel":"none","etopsAlternate":false},{"iata":"VBY","icao":"ESSV","name":"Visby Airport","country":"SE","lat":57.6628,"lon":18.346201,"runwayLengthFt":6562,"fireCat":9,"customs":true,"fuel":"jet-a1","etopsAlternate":false},{"iata":"AGH","icao":"ESTA","name":"Ängelholm-Helsingborg Airport","country":"SE","lat":56.29610061645508,"lon":12.847100257873535,"runwayLengthFt":6381,"fireCat":7,"customs":false,"fuel":"jet-a1","etopsAlternate":false},{"iata":"","icao":"ESTL","name":"Ljungbyhed Airfield","country":"SE","lat":56.082802,"lon":13.2125,"runwayLengthFt":7449,"fireCat":7,"customs":false,"fuel":"none","etopsAlternate":false},{"iata":"SQO","icao":"ESUD","name":"Storuman Airport","country":"SE","lat":64.960899,"lon":17.6966,"runwayLengthFt":7490,"fireCat":7,"customs":false,"fuel":"none","etopsAlternate":false},{"iata":"SPM","icao":"ETAD","name":"Spangdahlem Air Base","country":"DE","lat":49.976507,"lon":6.698413,"runwayLengthFt":10007,"fireCat":7,"customs":false,"fuel":"none","etopsAlternate":false},{"iata":"RMS","icao":"ETAR","name":"Ramstein Air Base","country":"DE","lat":49.436901,"lon":7.60028,"runwayLengthFt":10498,"fireCat":7,"customs":false,"fuel":"none","etopsAlternate":false},{"iata":"","icao":"ETHB","name":"Bückeburg Air Base","country":"DE","lat":52.2785,"lon":9.08217,"runwayLengthFt":6010,"fireCat":7,"customs":false,"fuel":"none","etopsAlternate":false},{"iata":"","icao":"ETHC","name":"Celle Army Airfield","country":"DE","lat":52.591202,"lon":10.0221,"runwayLengthFt":6007,"fireCat":7,"customs":false,"fuel":"none","etopsAlternate":false},{"iata":"","icao":"ETHS","name":"Faßberg Air Base","country":"DE","lat":52.919399,"lon":10.185827,"runwayLengthFt":8005,"fireCat":7,"customs":false,"fuel":"none","etopsAlternate":false},{"iata":"FCN","icao":"ETMN","name":"Sea-Airport Cuxhaven/Nordholz / Nordholz Naval Airbase","country":"DE","lat":53.767689,"lon":8.659201,"runwayLengthFt":8002,"fireCat":7,"customs":false,"fuel":"jet-a1","etopsAlternate":false},{"iata":"GKE","icao":"ETNG","name":"Geilenkirchen Air Base","country":"DE","lat":50.9608,"lon":6.04242,"runwayLengthFt":10009,"fireCat":7,"customs":false,"fuel":"none","etopsAlternate":false},{"iata":"","icao":"ETNH","name":"Hohn Air Base","country":"DE","lat":54.312199,"lon":9.53817,"runwayLengthFt":8005,"fireCat":7,"customs":false,"fuel":"none","etopsAlternate":false},{"iata":"RLG","icao":"ETNL","name":"Rostock-Laage Airport","country":"DE","lat":53.918201,"lon":12.2783,"runwayLengthFt":8202,"fireCat":7,"customs":false,"fuel":"jet-a1","etopsAlternate":false},{"iata":"","icao":"ETNN","name":"Nörvenich Air Base","country":"DE","lat":50.8312,"lon":6.65817,"runwayLengthFt":8003,"fireCat":7,"customs":false,"fuel":"none","etopsAlternate":false},{"iata":"WBG","icao":"ETNS","name":"Schleswig Air Base","country":"DE","lat":54.459301,"lon":9.51633,"runwayLengthFt":8003,"fireCat":7,"customs":false,"fuel":"none","etopsAlternate":false},{"iata":"","icao":"ETNT","name":"Wittmundhafen Air Base","country":"DE","lat":53.547798,"lon":7.66733,"runwayLengthFt":8005,"fireCat":7,"customs":false,"fuel":"none","etopsAlternate":false},{"iata":"","icao":"ETNW","name":"Wunstorf Air Base","country":"DE","lat":52.457298,"lon":9.42717,"runwayLengthFt":8199,"fireCat":7,"customs":false,"fuel":"none","etopsAlternate":false},{"iata":"WIE","icao":"ETOU","name":"Wiesbaden Army Airfield","country":"DE","lat":50.049800872802734,"lon":8.325400352478027,"runwayLengthFt":7065,"fireCat":7,"customs":false,"fuel":"none","etopsAlternate":false},{"iata":"","icao":"ETSB","name":"Büchel Air Base","country":"DE","lat":50.173801,"lon":7.06333,"runwayLengthFt":8225,"fireCat":7,"customs":false,"fuel":"none","etopsAlternate":false},{"iata":"","icao":"ETSH","name":"Holzdorf Air Base","country":"DE","lat":51.767799,"lon":13.1677,"runwayLengthFt":7936,"fireCat":7,"customs":false,"fuel":"none","etopsAlternate":false},{"iata":"IGS","icao":"ETSI","name":"Ingolstadt Manching Airport","country":"DE","lat":48.7156982421875,"lon":11.534000396728516,"runwayLengthFt":9646,"fireCat":7,"customs":false,"fuel":"none","etopsAlternate":false},{"iata":"","icao":"ETSL","name":"Lechfeld Air Base","country":"DE","lat":48.185504,"lon":10.8612,"runwayLengthFt":8012,"fireCat":7,"customs":false,"fuel":"none","etopsAlternate":false},{"iata":"","icao":"ETSN","name":"Neuburg Air Base","country":"DE","lat":48.710999,"lon":11.2115,"runwayLengthFt":8005,"fireCat":7,"customs":false,"fuel":"none","etopsAlternate":false},{"iata":"LPX","icao":"EVLA","name":"Liepāja International Airport","country":"LV","lat":56.517502,"lon":21.096901,"runwayLengthFt":6568,"fireCat":9,"customs":false,"fuel":"jet-a1","etopsAlternate":false},{"iata":"RIX","icao":"EVRA","name":"Riga International Airport","country":"LV","lat":56.920752,"lon":23.970711,"runwayLengthFt":10499,"fireCat":9,"customs":true,"fuel":"jet-a1","etopsAlternate":true},{"iata":"","icao":"EVTA","name":"Jūrmala Airport","country":"LV","lat":56.9422,"lon":23.2239,"runwayLengthFt":8197,"fireCat":7,"customs":false,"fuel":"none","etopsAlternate":false},{"iata":"KUN","icao":"EYKA","name":"Kaunas International Airport","country":"LT","lat":54.963965,"lon":24.08582,"runwayLengthFt":10663,"fireCat":9,"customs":true,"fuel":"jet-a1","etopsAlternate":true},{"iata":"","icao":"EYKD","name":"Kėdainiai Air Base","country":"LT","lat":55.31169891357422,"lon":23.95639991760254,"runwayLengthFt":6562,"fireCat":7,"customs":false,"fuel":"none","etopsAlternate":false},{"iata":"PLQ","icao":"EYPA","name":"Palanga International Airport","country":"LT","lat":55.973202,"lon":21.093901,"runwayLengthFt":7480,"fireCat":9,"customs":true,"fuel":"jet-a1","etopsAlternate":false},{"iata":"PNV","icao":"EYPP","name":"Panevėžys Air Base","country":"LT","lat":55.729400634765625,"lon":24.460800170898438,"runwayLengthFt":6562,"fireCat":7,"customs":false,"fuel":"none","etopsAlternate":false},{"iata":"SQQ","icao":"EYSA","name":"Šiauliai International Airport","country":"LT","lat":55.89390182495117,"lon":23.395000457763672,"runwayLengthFt":11483,"fireCat":7,"customs":false,"fuel":"none","etopsAlternate":false},{"iata":"VNO","icao":"EYVI","name":"Vilnius International Airport","country":"LT","lat":54.634102,"lon":25.285801,"runwayLengthFt":8251,"fireCat":9,"customs":true,"fuel":"jet-a1","etopsAlternate":true},{"iata":"ALJ","icao":"FAAB","name":"Alexander Bay Airport","country":"ZA","lat":-28.575001,"lon":16.5333,"runwayLengthFt":6063,"fireCat":7,"customs":false,"fuel":"none","etopsAlternate":false},{"iata":"AGZ","icao":"FAAG","name":"Aggeneys Airport","country":"ZA","lat":-29.281799,"lon":18.8139,"runwayLengthFt":6824,"fireCat":7,"customs":false,"fuel":"none","etopsAlternate":false},{"iata":"BIY","icao":"FABE","name":"Bisho Airport","country":"ZA","lat":-32.897099,"lon":27.2791,"runwayLengthFt":8202,"fireCat":7,"customs":false,"fuel":"none","etopsAlternate":false},{"iata":"BFN","icao":"FABL","name":"Bram Fischer International Airport","country":"ZA","lat":-29.092699,"lon":26.302401,"runwayLengthFt":8396,"fireCat":9,"customs":true,"fuel":"jet-a1","etopsAlternate":true},{"iata":"CPT","icao":"FACT","name":"Cape Town International Airport","country":"ZA","lat":-33.97403,"lon":18.604333,"runwayLengthFt":10502,"fireCat":9,"customs":true,"fuel":"jet-a1","etopsAlternate":true},{"iata":"ELS","icao":"FAEL","name":"King Phalo Airport","country":"ZA","lat":-33.035599,"lon":27.825899,"runwayLengthFt":6362,"fireCat":9,"customs":true,"fuel":"jet-a1","etopsAlternate":false},{"iata":"GCJ","icao":"FAGC","name":"Grand Central Airport","country":"ZA","lat":-25.986299514799995,"lon":28.1401004791,"runwayLengthFt":6004,"fireCat":7,"customs":false,"fuel":"none","etopsAlternate":false},{"iata":"GRJ","icao":"FAGG","name":"George Airport","country":"ZA","lat":-34.0056,"lon":22.378902,"runwayLengthFt":6562,"fireCat":9,"customs":true,"fuel":"jet-a1","etopsAlternate":false},{"iata":"HDS","icao":"FAHT","name":"Eastgate Airport / Air Force Base Hoedspruit","country":"ZA","lat":-24.361864,"lon":31.052921,"runwayLengthFt":13094,"fireCat":7,"customs":false,"fuel":"jet-a1","etopsAlternate":false},{"iata":"KIM","icao":"FAKM","name":"Kimberley Airport","country":"ZA","lat":-28.805401,"lon":24.764872,"runwayLengthFt":9843,"fireCat":9,"customs":true,"fuel":"jet-a1","etopsAlternate":true},{"iata":"MQP","icao":"FAKN","name":"Kruger Mpumalanga International Airport","country":"ZA","lat":-25.383327,"lon":31.105325,"runwayLengthFt":10171,"fireCat":9,"customs":true,"fuel":"jet-a1","etopsAlternate":true},{"iata":"HLA","icao":"FALA","name":"Lanseria International Airport","country":"ZA","lat":-25.938964,"lon":27.926642,"runwayLengthFt":9996,"fireCat":9,"customs":true,"fuel":"jet-a1","etopsAlternate":true},{"iata":"DUR","icao":"FALE","name":"King Shaka International Airport","country":"ZA","lat":-29.6144444444,"lon":31.1197222222,"runwayLengthFt":12139,"fireCat":9,"customs":true,"fuel":"jet-a1","etopsAlternate":false},{"iata":"SDB","icao":"FALW","name":"Langebaanweg Airport","country":"ZA","lat":-32.968898773199996,"lon":18.1602993011,"runwayLengthFt":7689,"fireCat":7,"customs":false,"fuel":"none","etopsAlternate":false},{"iata":"MBD","icao":"FAMM","name":"Mmabatho International Airport","country":"ZA","lat":-25.798400878900004,"lon":25.548000335699996,"runwayLengthFt":15157,"fireCat":7,"customs":false,"fuel":"jet-a1","etopsAlternate":false},{"iata":"MZQ","icao":"FAMU","name":"Mkuze Airport","country":"ZA","lat":-27.626101,"lon":32.0443,"runwayLengthFt":6070,"fireCat":7,"customs":false,"fuel":"jet-a1","etopsAlternate":false},{"iata":"JNB","icao":"FAOR","name":"O.R. Tambo International Airport","country":"ZA","lat":-26.140081,"lon":28.246801,"runwayLengthFt":14495,"fireCat":9,"customs":true,"fuel":"jet-a1","etopsAlternate":true},{"iata":"PLZ","icao":"FAPE","name":"Chief Dawid Stuurman International Airport","country":"ZA","lat":-33.989715,"lon":25.617353,"runwayLengthFt":7087,"fireCat":9,"customs":true,"fuel":"jet-a1","etopsAlternate":false},{"iata":"","icao":"FAPI","name":"Pietersburg Municipal Airport","country":"ZA","lat":-23.9261,"lon":29.4844,"runwayLengthFt":7218,"fireCat":7,"customs":false,"fuel":"jet-a1","etopsAlternate":false},